[
    {
        "_id" : ObjectId("62980029788524711396a98e"),
        "gAddress" : "Roscoe Building 5th Floor, Brunswick Street, Manchester",
        "gCity" : "Manchester",
        "gId" : "ChIJ--oqNJCxe0gRj_M3hdVSD_A",
        "gLatitude" : 53.4673091,
        "gLongitude" : -2.2287959,
        "gName" : "Census Dissemination Unit (CDU)"
    },
    {
        "_id" : ObjectId("62980029788524711396a98f"),
        "gAddress" : "52 Newton Street, Manchester",
        "gCity" : "Manchester",
        "gId" : "ChIJ--wWob6xe0gRBF_8v0r7KYc",
        "gLatitude" : 53.4821537,
        "gLongitude" : -2.2322586,
        "gName" : "Hope Studios"
    },
    {
        "_id" : ObjectId("62980029788524711396a990"),
        "gAddress" : "191 Burnage Lane, Manchester, Burnage",
        "gCity" : "Burnage",
        "gId" : "ChIJ-0TSZ7aze0gRTNMMeZHkl8A",
        "gLatitude" : 53.4330761,
        "gLongitude" : -2.2001861,
        "gName" : "American Pizza Co."
    },
    {
        "_id" : ObjectId("62980029788524711396a991"),
        "gAddress" : "1 University Road West, Crescent, Salford",
        "gCity" : "Salford",
        "gId" : "ChIJ-0_fpCaue0gRw_Dspo6VW14",
        "gLatitude" : 53.4834298,
        "gLongitude" : -2.270747,
        "gName" : "Enterprise and Development, University of Salford"
    },
    {
        "_id" : ObjectId("62980029788524711396a992"),
        "gAddress" : "Cross Lane, Manchester",
        "gCity" : "Manchester",
        "gId" : "ChIJ-0vmrFCxe0gRUlyJvfalK_c",
        "gLatitude" : 53.4630131,
        "gLongitude" : -2.1707439,
        "gName" : "Martin's Bakers & Sandwich Makers"
    },
    {
        "_id" : ObjectId("62980029788524711396a993"),
        "gAddress" : "mauriziotoccu",
        "gCity" : "Manchester",
        "gId" : "ChIJ-0znjTuye0gRAg2MaRCrBZk",
        "gLatitude" : 53.4419576,
        "gLongitude" : -2.2276858,
        "gName" : "Fallowfield Allotments"
    },
    {
        "_id" : ObjectId("62980029788524711396a994"),
        "gAddress" : "9 Ayres Road, Manchester",
        "gCity" : "Manchester",
        "gId" : "ChIJ-1R5Qv6xe0gR9W36_buzyQk",
        "gLatitude" : 53.4597306,
        "gLongitude" : -2.2607535,
        "gName" : "Benidorm Direct"
    },
    {
        "_id" : ObjectId("62980029788524711396a995"),
        "gAddress" : "9 Ayres Road, Manchester",
        "gCity" : "Manchester",
        "gId" : "ChIJ-1R5Qv6xe0gRfdlWy-kwBgo",
        "gLatitude" : 53.4597306,
        "gLongitude" : -2.2607535,
        "gName" : "Benidorm News"
    },
    {
        "_id" : ObjectId("62980029788524711396a996"),
        "gAddress" : "82 Bury Old Road, Manchester",
        "gCity" : "Manchester",
        "gId" : "ChIJ-1wYQjmwe0gR2E9s6W0rTNQ",
        "gLatitude" : 53.514254,
        "gLongitude" : -2.246477,
        "gName" : "Allen's Fried Chicken"
    },
    {
        "_id" : ObjectId("62980029788524711396a997"),
        "gAddress" : "Wilmslow Road Didsbury, Wilmslow Road, Manchester",
        "gCity" : "Manchester",
        "gId" : "ChIJ-1xIE_Cye0gRhEOqdFS-H6I",
        "gLatitude" : 53.4165985,
        "gLongitude" : -2.2314107,
        "gName" : "Galleon Cafe and Lounge"
    },
    {
        "_id" : ObjectId("62980029788524711396a998"),
        "gAddress" : "40 Bury New Road, Prestwich, Manchester",
        "gCity" : "Manchester",
        "gId" : "ChIJ-2HPTt6ve0gRuR9VLtlKDVA",
        "gLatitude" : 53.5186521,
        "gLongitude" : -2.2716559,
        "gName" : "El Greco"
    },
    {
        "_id" : ObjectId("62980029788524711396a999"),
        "gAddress" : "Deansgate, Manchester",
        "gCity" : "Manchester",
        "gId" : "ChIJ-2_lksKxe0gRgWK7ifEXEjA",
        "gLatitude" : 53.4795876,
        "gLongitude" : -2.2488618,
        "gName" : "The skin experts"
    },
    {
        "_id" : ObjectId("62980029788524711396a99a"),
        "gAddress" : "Deansgate, Manchester",
        "gCity" : "Manchester",
        "gId" : "ChIJ-2_lksKxe0gRkw0G_5Hde1Y",
        "gLatitude" : 53.4795876,
        "gLongitude" : -2.2488618,
        "gName" : "Tara health and beauty"
    },
    {
        "_id" : ObjectId("62980029788524711396a99b"),
        "gAddress" : "Derwent Avenue, Manchester",
        "gCity" : "Manchester",
        "gId" : "ChIJ-2aO0Heye0gRP5i440qEM-g",
        "gLatitude" : 53.425822,
        "gLongitude" : -2.25796,
        "gName" : "Christies Field Beefeater"
    },
    {
        "_id" : ObjectId("62980029788524711396a99c"),
        "gAddress" : "Manchester",
        "gCity" : "Manchester",
        "gId" : "ChIJ-2oOFviye0gRniu8-H7TLrg",
        "gLatitude" : 53.4119578,
        "gLongitude" : -2.2185362,
        "gName" : "Enzzy"
    },
    {
        "_id" : ObjectId("62980029788524711396a99d"),
        "gAddress" : "293 Middleton Road, Manchester",
        "gCity" : "Manchester",
        "gId" : "ChIJ-2sMtxOwe0gRU8Zx3Fh3zW4",
        "gLatitude" : 53.5283156,
        "gLongitude" : -2.2471429,
        "gName" : "Mr Ali's Exclusive Tandoori Restaurant"
    },
    {
        "_id" : ObjectId("62980029788524711396a99e"),
        "gAddress" : "2 Lawrence Street, Stockport",
        "gCity" : "Stockport",
        "gId" : "ChIJ-3-cvH6ze0gRtfaLd58dcyE",
        "gLatitude" : 53.408686,
        "gLongitude" : -2.161076,
        "gName" : "Anytime Fitness Stockport"
    },
    {
        "_id" : ObjectId("62980029788524711396a99f"),
        "gAddress" : "19 Ford Lane, Manchester",
        "gCity" : "Manchester",
        "gId" : "ChIJ-3JGYoGye0gR1ZlOrFWuixE",
        "gLatitude" : 53.4073772,
        "gLongitude" : -2.2543011,
        "gName" : "The Crown Inn"
    },
    {
        "_id" : ObjectId("62980029788524711396a9a0"),
        "gAddress" : "Sackville Place, Bombay Street, Manchester",
        "gCity" : "Manchester",
        "gId" : "ChIJ-3Y_H5Wxe0gR9tlN7G9H4rc",
        "gLatitude" : 53.4757732,
        "gLongitude" : -2.2359119,
        "gName" : "Ready to Manchester"
    },
    {
        "_id" : ObjectId("62980029788524711396a9a1"),
        "gAddress" : "263 New Bridge Lane, Stockport",
        "gCity" : "Stockport",
        "gId" : "ChIJ-3ooj4e0e0gRPEZkeZARxq0",
        "gLatitude" : 53.414238,
        "gLongitude" : -2.143599,
        "gName" : "The Midway"
    },
    {
        "_id" : ObjectId("62980029788524711396a9a2"),
        "gAddress" : "799 Stockport Road, Manchester",
        "gCity" : "Manchester",
        "gId" : "ChIJ-3wjtcSze0gRCueYq7Ry0lU",
        "gLatitude" : 53.4461013,
        "gLongitude" : -2.1911899,
        "gName" : "Haji Tours"
    },
    {
        "_id" : ObjectId("62980029788524711396a9a3"),
        "gAddress" : "15 Lower Hillgate, Stockport",
        "gCity" : "Stockport",
        "gId" : "ChIJ-44uQH6ze0gR-FOHx0FQ0sU",
        "gLatitude" : 53.410372,
        "gLongitude" : -2.1559328,
        "gName" : "Tudor Cafe"
    },
    {
        "_id" : ObjectId("62980029788524711396a9a4"),
        "gAddress" : "Waterside Hotel & Leisure Club, Wilmslow Rd, Manchester",
        "gCity" : "Manchester",
        "gId" : "ChIJ-4BIHOqxe0gR5YdjBugB7RU",
        "gLatitude" : 53.40388,
        "gLongitude" : -2.220315,
        "gName" : "TRAINFITNESS Manchester City"
    },
    {
        "_id" : ObjectId("62980029788524711396a9a5"),
        "gAddress" : "7-11 Lower Mosley Street, Manchester",
        "gCity" : "Manchester",
        "gId" : "ChIJ-4BIHOqxe0gRBVlZEfOgb_s",
        "gLatitude" : 53.476749,
        "gLongitude" : -2.244607,
        "gName" : "Premier Inn Manchester Central"
    },
    {
        "_id" : ObjectId("62980029788524711396a9a6"),
        "gAddress" : "Bishopsgate, 7-11 Lower Mosley Street, Manchester",
        "gCity" : "Manchester",
        "gId" : "ChIJ-4BIHOqxe0gRMPWPWIVMZ0U",
        "gLatitude" : 53.4768086,
        "gLongitude" : -2.2446276,
        "gName" : "The Bishopsgate Table Table"
    },
    {
        "_id" : ObjectId("62980029788524711396a9a7"),
        "gAddress" : "7-11 Lower Mosley Street, Manchester",
        "gCity" : "Manchester",
        "gId" : "ChIJ-4BIHOqxe0gRPWfdhYHjZc0",
        "gLatitude" : 53.4766987,
        "gLongitude" : -2.2445731,
        "gName" : "Room to Relax"
    },
    {
        "_id" : ObjectId("62980029788524711396a9a8"),
        "gAddress" : "Manchester, , M25 0HG, Manchester 14 Tewk-esbury Dr Prestwich, M25 0HG ua, Manchester",
        "gCity" : "Manchester",
        "gId" : "ChIJ-4tWjcexe0gRkk18gc7aAlw",
        "gLatitude" : 53.4871569,
        "gLongitude" : -2.2397688,
        "gName" : "yLapointe Solutions FSq"
    },
    {
        "_id" : ObjectId("62980029788524711396a9a9"),
        "gAddress" : "945 Stockport Road, Manchester",
        "gCity" : "Manchester",
        "gId" : "ChIJ-56fC8Sze0gRsbTMmvW9AYk",
        "gLatitude" : 53.4419756,
        "gLongitude" : -2.1896701,
        "gName" : "Himalaya Restaurant"
    },
    {
        "_id" : ObjectId("62980029788524711396a9aa"),
        "gAddress" : "82 Oldham Road, Failsworth, Manchester",
        "gCity" : "Manchester",
        "gId" : "ChIJ-5AuOdewe0gR-KN2usmpJks",
        "gLatitude" : 53.5049191,
        "gLongitude" : -2.1727514,
        "gName" : "The Lamb Inn"
    },
    {
        "_id" : ObjectId("62980029788524711396a9ab"),
        "gAddress" : "124 Oxford Road, Manchester",
        "gCity" : "Manchester",
        "gId" : "ChIJ-5i-zpKxe0gRemPBB7Dnbp0",
        "gLatitude" : 53.468465,
        "gLongitude" : -2.236736,
        "gName" : "RNCM"
    },
    {
        "_id" : ObjectId("62980029788524711396a9ac"),
        "gAddress" : "257 Manchester Road, Oldham",
        "gCity" : "Oldham",
        "gId" : "ChIJ-65Kg0C3e0gR-ppg57At000",
        "gLatitude" : 53.5229565,
        "gLongitude" : -2.1406378,
        "gName" : "Subway"
    },
    {
        "_id" : ObjectId("62980029788524711396a9ad"),
        "gAddress" : "University Of Manchester, Oxford Street, Manchester",
        "gCity" : "Manchester",
        "gId" : "ChIJ-6RjEI6xe0gRDZpeeoQJgKk",
        "gLatitude" : 53.4669961,
        "gLongitude" : -2.2331248,
        "gName" : "EPSRC EPR National Service"
    },
    {
        "_id" : ObjectId("62980029788524711396a9ae"),
        "gAddress" : "126 Bury New Road, Prestwich, Manchester",
        "gCity" : "Manchester",
        "gId" : "ChIJ-6tC1-ave0gR0pUHsvtQ0QE",
        "gLatitude" : 53.5236443,
        "gLongitude" : -2.2759191,
        "gName" : "Sundays Manchester Ltd"
    },
    {
        "_id" : ObjectId("62980029788524711396a9af"),
        "gAddress" : "198 Mauldeth Road, Manchester",
        "gCity" : "Manchester",
        "gId" : "ChIJ-7fj3rSze0gRIhYZHDP0hCk",
        "gLatitude" : 53.4321961,
        "gLongitude" : -2.2068859,
        "gName" : "Thaali Indian Restaurant"
    },
    {
        "_id" : ObjectId("62980029788524711396a9b0"),
        "gAddress" : "140 Burton Road, Manchester",
        "gCity" : "Manchester",
        "gId" : "ChIJ-8-TrG6ye0gRCqSzaBztta8",
        "gLatitude" : 53.4282965,
        "gLongitude" : -2.2410741,
        "gName" : "The Great Kathmandu Restaurant"
    },
    {
        "_id" : ObjectId("62980029788524711396a9b1"),
        "gAddress" : "182 Church Lane, Manchester",
        "gCity" : "Manchester",
        "gId" : "ChIJ-8E-Gfuwe0gRo80Ki6INs2Q",
        "gLatitude" : 53.5077723,
        "gLongitude" : -2.2033457,
        "gName" : "Hopewell Fish & Chips"
    },
    {
        "_id" : ObjectId("62980029788524711396a9b2"),
        "gAddress" : "104 Seaford Road, Salford",
        "gCity" : "Salford",
        "gId" : "ChIJ-8rqmyyue0gReI3SVoT_Hlo",
        "gLatitude" : 53.4969355,
        "gLongitude" : -2.273144,
        "gName" : "Stop N Tan"
    },
    {
        "_id" : ObjectId("62980029788524711396a9b3"),
        "gAddress" : "26 Longley Lane, Manchester",
        "gCity" : "Manchester",
        "gId" : "ChIJ-98TSnyte0gRJb9T-xAEDjo",
        "gLatitude" : 53.4055326,
        "gLongitude" : -2.2621853,
        "gName" : "Farmers Arms"
    },
    {
        "_id" : ObjectId("62980029788524711396a9b4"),
        "gAddress" : "138 Cheetham Hill Road, Manchester",
        "gCity" : "Manchester",
        "gId" : "ChIJ-9AsAbaxe0gR3pXHPyWSHh0",
        "gLatitude" : 53.4938103,
        "gLongitude" : -2.2393584,
        "gName" : "Lahori Badsha"
    },
    {
        "_id" : ObjectId("62980029788524711396a9b5"),
        "gAddress" : "150-152 Cheetham Hill Road, Manchester",
        "gCity" : "Manchester",
        "gId" : "ChIJ-9AsAbaxe0gRS9sgvxGy-zE",
        "gLatitude" : 53.4941475,
        "gLongitude" : -2.2389942,
        "gName" : "Lahori Kebabish"
    },
    {
        "_id" : ObjectId("62980029788524711396a9b6"),
        "gAddress" : "Princess Road, Manchester",
        "gCity" : "Manchester",
        "gId" : "ChIJ-9HK4hKye0gRvN-WwIv_RgI",
        "gLatitude" : 53.443075,
        "gLongitude" : -2.244234,
        "gName" : "The Beauty Clinic"
    },
    {
        "_id" : ObjectId("62980029788524711396a9b7"),
        "gAddress" : "49 Faulkner Street, Manchester",
        "gCity" : "Manchester",
        "gId" : "ChIJ-9gHGMCxe0gR-PhBJQLuxyA",
        "gLatitude" : 53.4784643,
        "gLongitude" : -2.2394059,
        "gName" : "Chinese Gate"
    },
    {
        "_id" : ObjectId("62980029788524711396a9b8"),
        "gAddress" : "Wellington Street, Chadderton, Oldham",
        "gCity" : "Oldham",
        "gId" : "ChIJ-Q2Hv-G5e0gRQAJraKPrY_g",
        "gLatitude" : 53.5457624,
        "gLongitude" : -2.1432607,
        "gName" : "Mill House cafe"
    },
    {
        "_id" : ObjectId("62980029788524711396a9b9"),
        "gAddress" : "106 Higher Hillgate, Stockport",
        "gCity" : "Stockport",
        "gId" : "ChIJ-Q3peGKze0gRzQfu36A4F-E",
        "gLatitude" : 53.402039,
        "gLongitude" : -2.154092,
        "gName" : "harappa restaurant"
    },
    {
        "_id" : ObjectId("62980029788524711396a9ba"),
        "gAddress" : "1 William Street, Manchester",
        "gCity" : "Manchester",
        "gId" : "ChIJ-Qrs9V6ye0gR_BKzdMh8ZE4",
        "gLatitude" : 53.4168097,
        "gLongitude" : -2.2298723,
        "gName" : "Fletcher Moss"
    },
    {
        "_id" : ObjectId("62980029788524711396a9bb"),
        "gAddress" : "United Kingdom",
        "gCity" : "Salford",
        "gId" : "ChIJ-RReoTmwe0gRGA3QD2lwjUg",
        "gLatitude" : 53.5124444,
        "gLongitude" : -2.2456494,
        "gName" : "Shawarma Place"
    },
    {
        "_id" : ObjectId("62980029788524711396a9bc"),
        "gAddress" : "Liverpool Road, Manchester",
        "gCity" : "Manchester",
        "gId" : "ChIJ-S0zW-exe0gR6xWDHYFHjRM",
        "gLatitude" : 53.4764912,
        "gLongitude" : -2.2568707,
        "gName" : "The Castlefield Hotel"
    },
    {
        "_id" : ObjectId("62980029788524711396a9bd"),
        "gAddress" : "146 Claremont Road, Manchester",
        "gCity" : "Manchester",
        "gId" : "ChIJ-SCXgB6ye0gRnjav627tK-8",
        "gLatitude" : 53.4532849,
        "gLongitude" : -2.2424703,
        "gName" : "254 Hair Studio"
    },
    {
        "_id" : ObjectId("62980029788524711396a9be"),
        "gAddress" : "450 Wilbraham Road, Manchester",
        "gCity" : "Manchester",
        "gId" : "ChIJ-SItuO-te0gRy8FV0YeZPDw",
        "gLatitude" : 53.442604,
        "gLongitude" : -2.276538,
        "gName" : "Dixy Chicken (Chorlton)"
    },
    {
        "_id" : ObjectId("62980029788524711396a9bf"),
        "gAddress" : "1 Nelson Way, Chadderton, Oldham",
        "gCity" : "Oldham",
        "gId" : "ChIJ-SKpf0O3e0gRoptWN2M0wbw",
        "gLatitude" : 53.5314835,
        "gLongitude" : -2.1446135,
        "gName" : "Diane's Beauty - Mobile Beauty Therapist in Oldham"
    },
    {
        "_id" : ObjectId("62980029788524711396a9c0"),
        "gAddress" : "12 Greenheys Lane, Manchester",
        "gCity" : "Manchester",
        "gId" : "ChIJ-SUJEPOxe0gR-0WLx1UClyk",
        "gLatitude" : 53.4635124,
        "gLongitude" : -2.2394259,
        "gName" : "麻辣空间"
    },
    {
        "_id" : ObjectId("62980029788524711396a9c1"),
        "gAddress" : "430 Wilbraham Road, Manchester",
        "gCity" : "Manchester",
        "gId" : "ChIJ-SWS2u-te0gR5gah83YEaBQ",
        "gLatitude" : 53.4426147,
        "gLongitude" : -2.2754069,
        "gName" : "Nom Noms"
    },
    {
        "_id" : ObjectId("62980029788524711396a9c2"),
        "gAddress" : "Princess Road, Manchester",
        "gCity" : "Manchester",
        "gId" : "ChIJ-SfLbhGye0gR6-dtVjHTJH0",
        "gLatitude" : 53.44249,
        "gLongitude" : -2.244231,
        "gName" : "ASIANA BRIDAL HAIR & MAKEUP ARTIST, MEHNDI HENNA Asian Bride Wedding"
    },
    {
        "_id" : ObjectId("62980029788524711396a9c3"),
        "gAddress" : "Princess Road, Manchester",
        "gCity" : "Manchester",
        "gId" : "ChIJ-SfLbhGye0gRjpct5lTeSP8",
        "gLatitude" : 53.441876,
        "gLongitude" : -2.243931,
        "gName" : "BRIDAL HAIR & MAKEUP BEAUTY SALON, HOT WAX, Brazilian Hollywood waxing"
    },
    {
        "_id" : ObjectId("62980029788524711396a9c4"),
        "gAddress" : "Princess Road, Manchester",
        "gCity" : "Manchester",
        "gId" : "ChIJ-SfLbhGye0gRq-X89fhImqQ",
        "gLatitude" : 53.442002,
        "gLongitude" : -2.24359,
        "gName" : "Unique Semi Permanent Eyelash Extensions, Tinting, Gel Nails, Vajazzling"
    },
    {
        "_id" : ObjectId("62980029788524711396a9c5"),
        "gAddress" : "Deanway, Manchester",
        "gCity" : "Manchester",
        "gId" : "ChIJ-SwFD-awe0gRGgH6MsCE5IY",
        "gLatitude" : 53.5102015,
        "gLongitude" : -2.1942655,
        "gName" : "Mk Salon Unisex"
    },
    {
        "_id" : ObjectId("62980029788524711396a9c6"),
        "gAddress" : "178 Yew Tree Lane, Manchester",
        "gCity" : "Manchester",
        "gId" : "ChIJ-Szp4nete0gRqeAI8ZQcH1U",
        "gLatitude" : 53.4121113,
        "gLongitude" : -2.2731163,
        "gName" : "Travel Counsellors PLC"
    },
    {
        "_id" : ObjectId("62980029788524711396a9c7"),
        "gAddress" : "Charles Street, Stockport",
        "gCity" : "Stockport",
        "gId" : "ChIJ-TY9Vpy0e0gR-d46QTDhaHQ",
        "gLatitude" : 53.400892,
        "gLongitude" : -2.149499,
        "gName" : "Ghost Pubs"
    },
    {
        "_id" : ObjectId("62980029788524711396a9c8"),
        "gAddress" : "16 Kennedy Street, Manchester",
        "gCity" : "Manchester",
        "gId" : "ChIJ-TYhnMGxe0gRLw0jwma40As",
        "gLatitude" : 53.4799243,
        "gLongitude" : -2.2436708,
        "gName" : "Lifestyle Holidays"
    },
    {
        "_id" : ObjectId("62980029788524711396a9c9"),
        "gAddress" : "117 Gerald Road, Salford",
        "gCity" : "Salford",
        "gId" : "ChIJ-UhuFS2ue0gR0SvC5FLm2nA",
        "gLatitude" : 53.4972754,
        "gLongitude" : -2.2774721,
        "gName" : "Ho Yee Chippy"
    },
    {
        "_id" : ObjectId("62980029788524711396a9ca"),
        "gAddress" : "236-238 Wilmslow Road, Manchester",
        "gCity" : "Manchester",
        "gId" : "ChIJ-Ux6qTGye0gR3qHBLQ41hNc",
        "gLatitude" : 53.4437845,
        "gLongitude" : -2.2186376,
        "gName" : "The Font, Fallowfield"
    },
    {
        "_id" : ObjectId("62980029788524711396a9cb"),
        "gAddress" : "Radisson Blu Edwardian Manchester, Peter Street, Manchester",
        "gCity" : "Manchester",
        "gId" : "ChIJ-VGkfcKxe0gROE8Tcq_TghY",
        "gLatitude" : 53.477841,
        "gLongitude" : -2.2471763,
        "gName" : "Opus One Bar and Restaurant"
    },
    {
        "_id" : ObjectId("62980029788524711396a9cc"),
        "gAddress" : "6a, universal square, Manchester",
        "gCity" : "Manchester",
        "gId" : "ChIJ-WLUsZ2xe0gRPGpbjDuJydw",
        "gLatitude" : 53.4707794,
        "gLongitude" : -2.2140417,
        "gName" : "BigFoodie"
    },
    {
        "_id" : ObjectId("62980029788524711396a9cd"),
        "gAddress" : "White City Retail Park, 1A White City Way, Stretford, Manchester",
        "gCity" : "Manchester",
        "gId" : "ChIJ-X8NCwyue0gRz_duMNVE3yY",
        "gLatitude" : 53.4614323,
        "gLongitude" : -2.2860392,
        "gName" : "M&S Stretford Foodhall"
    },
    {
        "_id" : ObjectId("62980029788524711396a9ce"),
        "gAddress" : "D, Colmar House, Middleton Shopping Center, Manchester",
        "gCity" : "Manchester",
        "gId" : "ChIJ-XXgyXa6e0gRiUbnzKx4hKk",
        "gLatitude" : 53.5483725,
        "gLongitude" : -2.1995465,
        "gName" : "Substation Middleton"
    },
    {
        "_id" : ObjectId("62980029788524711396a9cf"),
        "gAddress" : "286-288 Moston Lane, Manchester",
        "gCity" : "Manchester",
        "gId" : "ChIJ-Xoj7MGwe0gR9aT0d5dcoGE",
        "gLatitude" : 53.513819,
        "gLongitude" : -2.198218,
        "gName" : "La Buka - African Restaurant"
    },
    {
        "_id" : ObjectId("62980029788524711396a9d0"),
        "gAddress" : "29-31 Sackville Street, Manchester",
        "gCity" : "Manchester",
        "gId" : "ChIJ-XwxW5Wxe0gR2d_fh572FiU",
        "gLatitude" : 53.4771546,
        "gLongitude" : -2.2371435,
        "gName" : "Habesha Restaurant"
    },
    {
        "_id" : ObjectId("62980029788524711396a9d1"),
        "gAddress" : "49 Piccadilly, Manchester",
        "gCity" : "Manchester",
        "gId" : "ChIJ-Y634r6xe0gRjcV2zzWOTMs",
        "gLatitude" : 53.4812256,
        "gLongitude" : -2.2350982,
        "gName" : "Makeup By Ruby - Asian Bridal Makeup Artist Manchester"
    },
    {
        "_id" : ObjectId("62980029788524711396a9d2"),
        "gAddress" : "Pod 48, first floor, The greenhouse building , 111 Broadway, Salford",
        "gCity" : "Salford",
        "gId" : "ChIJ-YRuMGque0gRREg7xewXz0c",
        "gLatitude" : 53.4750136,
        "gLongitude" : -2.2966346,
        "gName" : "The Beauty Guru at Media City"
    },
    {
        "_id" : ObjectId("62980029788524711396a9d3"),
        "gAddress" : "Cleveleys Avenue, Manchester",
        "gCity" : "Manchester",
        "gId" : "ChIJ-YUQVvKte0gR_isqyCCekBM",
        "gLatitude" : 53.4366205,
        "gLongitude" : -2.2713967,
        "gName" : "Cleveleys Avenue Allotments"
    },
    {
        "_id" : ObjectId("62980029788524711396a9d4"),
        "gAddress" : "27 Shaw Road, Stockport",
        "gCity" : "Stockport",
        "gId" : "ChIJ-YdVPaOze0gRzGL8lU4kHLI",
        "gLatitude" : 53.4232396,
        "gLongitude" : -2.1855073,
        "gName" : "Brassica Grill"
    },
    {
        "_id" : ObjectId("62980029788524711396a9d5"),
        "gAddress" : "55 Middle Hillgate, Stockport",
        "gCity" : "Stockport",
        "gId" : "ChIJ-ZEFgn2ze0gRGQC13BS9ihc",
        "gLatitude" : 53.40633,
        "gLongitude" : -2.154343,
        "gName" : "Universe Pizza"
    },
    {
        "_id" : ObjectId("62980029788524711396a9d6"),
        "gAddress" : "11 Castle Street, Stockport",
        "gCity" : "Stockport",
        "gId" : "ChIJ-ZU5iW-ze0gR7YewCI-q8x4",
        "gLatitude" : 53.4024049,
        "gLongitude" : -2.1636548,
        "gName" : "Mustaphs"
    },
    {
        "_id" : ObjectId("62980029788524711396a9d7"),
        "gAddress" : "125 Castle Street, Stockport",
        "gCity" : "Stockport",
        "gId" : "ChIJ-ZU5iW-ze0gRX1QBqkDejgk",
        "gLatitude" : 53.4013966,
        "gLongitude" : -2.1684778,
        "gName" : "Tips & Toes"
    },
    {
        "_id" : ObjectId("62980029788524711396a9d8"),
        "gAddress" : "38 Castle Street, Stockport",
        "gCity" : "Stockport",
        "gId" : "ChIJ-ZU5iW-ze0gRg9Otwj0efTg",
        "gLatitude" : 53.4024425,
        "gLongitude" : -2.1648189,
        "gName" : "Chilli Massalla"
    },
    {
        "_id" : ObjectId("62980029788524711396a9d9"),
        "gAddress" : "11 Market Place, Stockport",
        "gCity" : "Stockport",
        "gId" : "ChIJ-_EDTn6ze0gRdP2V88FpyiI",
        "gLatitude" : 53.4112612,
        "gLongitude" : -2.1567328,
        "gName" : "Remedy Bar"
    },
    {
        "_id" : ObjectId("62980029788524711396a9da"),
        "gAddress" : "29 Grafton Street, Manchester",
        "gCity" : "Manchester",
        "gId" : "ChIJ-_NA5Y6xe0gRj571Pn8k2uY",
        "gLatitude" : 53.4633127,
        "gLongitude" : -2.2280246,
        "gName" : "NIHR Manchester Biomedical Research Unit"
    },
    {
        "_id" : ObjectId("62980029788524711396a9db"),
        "gAddress" : "1 Cross St, Manchester M2 1HX Cross Street, Manchester",
        "gCity" : "Manchester",
        "gId" : "ChIJ-_SZNcGxe0gRmaOmffx-ycQ",
        "gLatitude" : 53.4828504,
        "gLongitude" : -2.2434594,
        "gName" : "Costa Coffee"
    },
    {
        "_id" : ObjectId("62980029788524711396a9dc"),
        "gAddress" : "Market Street, Manchester",
        "gCity" : "Manchester",
        "gId" : "ChIJ-_zgxcCxe0gR3drdL7_naGg",
        "gLatitude" : 53.482742,
        "gLongitude" : -2.2420472,
        "gName" : "Expert On Travel"
    },
    {
        "_id" : ObjectId("62980029788524711396a9dd"),
        "gAddress" : "36 Prince's Street, Stockport",
        "gCity" : "Stockport",
        "gId" : "ChIJ-b0L1Hize0gRiTF3I2x14eg",
        "gLatitude" : 53.4120122,
        "gLongitude" : -2.1606018,
        "gName" : "Swan With Two Necks"
    },
    {
        "_id" : ObjectId("62980029788524711396a9de"),
        "gAddress" : "412 Gorton Road, Stockport",
        "gCity" : "Stockport",
        "gId" : "ChIJ-boFd_ize0gRcR2njsT_U9I",
        "gLatitude" : 53.4486855,
        "gLongitude" : -2.1573752,
        "gName" : "Brunch"
    },
    {
        "_id" : ObjectId("62980029788524711396a9df"),
        "gAddress" : "157 Fog Lane, Manchester",
        "gCity" : "Manchester",
        "gId" : "ChIJ-cZGqlGye0gRI4e0_FbH_kA",
        "gLatitude" : 53.421533,
        "gLongitude" : -2.217602,
        "gName" : "Wok Star"
    },
    {
        "_id" : ObjectId("62980029788524711396a9e0"),
        "gAddress" : "161 Fog La, Manchester",
        "gCity" : "Manchester",
        "gId" : "ChIJ-cZGqlGye0gRJhvrJ4XjdfU",
        "gLatitude" : 53.4214806,
        "gLongitude" : -2.2174026,
        "gName" : "Foggys Fish & Chips"
    },
    {
        "_id" : ObjectId("62980029788524711396a9e1"),
        "gAddress" : "Etihad Stadium, Etihad Campus, Manchester",
        "gCity" : "Manchester",
        "gId" : "ChIJ-d4lkg2xe0gRBlrG-EA73r4",
        "gLatitude" : 53.4802581,
        "gLongitude" : -2.1888763,
        "gName" : "UCFB Etihad Campus"
    },
    {
        "_id" : ObjectId("62980029788524711396a9e2"),
        "gAddress" : "11 Great Portwood Street, Stockport",
        "gCity" : "Stockport",
        "gId" : "ChIJ-d65HIC0e0gRl2CBJRGHpbU",
        "gLatitude" : 53.4138022,
        "gLongitude" : -2.1540884,
        "gName" : "The Queens"
    },
    {
        "_id" : ObjectId("62980029788524711396a9e3"),
        "gAddress" : "613 Gorton Road, Stockport",
        "gCity" : "Stockport",
        "gId" : "ChIJ-dDCXf-ze0gREXbCh8RqwII",
        "gLatitude" : 53.4534456,
        "gLongitude" : -2.1579742,
        "gName" : "New Oriental"
    },
    {
        "_id" : ObjectId("62980029788524711396a9e4"),
        "gAddress" : "Aytoun Street, Unit 4A, Piccadilly Place, Manchester",
        "gCity" : "Manchester",
        "gId" : "ChIJ-dFUi5Wxe0gR1w8n6n3BbFY",
        "gLatitude" : 53.4774927,
        "gLongitude" : -2.2336804,
        "gName" : "Anytime Fitness Manchester Piccadilly"
    },
    {
        "_id" : ObjectId("62980029788524711396a9e5"),
        "gAddress" : "4, 67 Great Ancoats Street, Manchester",
        "gCity" : "Manchester",
        "gId" : "ChIJ-dSlK6Oxe0gRH_SWjYNGDAQ",
        "gLatitude" : 53.483378,
        "gLongitude" : -2.2297259,
        "gName" : "Squid Ink"
    },
    {
        "_id" : ObjectId("62980029788524711396a9e6"),
        "gAddress" : "1A Watson Street, Manchester",
        "gCity" : "Manchester",
        "gId" : "ChIJ-dheK-ixe0gRh3FSHWGBeAw",
        "gLatitude" : 53.477494,
        "gLongitude" : -2.248027,
        "gName" : "Épernay Champagne and Cocktail Bar"
    },
    {
        "_id" : ObjectId("62980029788524711396a9e7"),
        "gAddress" : "Wellington Road South, Stockport",
        "gCity" : "Stockport",
        "gId" : "ChIJ-dj9aWKze0gRjhecqDiTrZw",
        "gLatitude" : 53.3998226,
        "gLongitude" : -2.1548358,
        "gName" : "Chen"
    },
    {
        "_id" : ObjectId("62980029788524711396a9e8"),
        "gAddress" : "mauriziotoccu",
        "gCity" : "Manchester",
        "gId" : "ChIJ-dodGjqye0gRy06KwaxuJXE",
        "gLatitude" : 53.4406845,
        "gLongitude" : -2.2234831,
        "gName" : "Wellington Road Allotments"
    },
    {
        "_id" : ObjectId("62980029788524711396a9e9"),
        "gAddress" : "St. Benedict's Church, Bennett Street, Manchester",
        "gCity" : "Manchester",
        "gId" : "ChIJ-dzPz3Cxe0gRJ8tLqBCO5kI",
        "gLatitude" : 53.469464,
        "gLongitude" : -2.204217,
        "gName" : "Manchester Climbing Centre"
    },
    {
        "_id" : ObjectId("62980029788524711396a9ea"),
        "gAddress" : "Fremantle Avenue, Manchester",
        "gCity" : "Manchester",
        "gId" : "ChIJ-eIIA-Oze0gRqb5lmDY-IDM",
        "gLatitude" : 53.4544091,
        "gLongitude" : -2.1734737,
        "gName" : "Beauty Esteem"
    },
    {
        "_id" : ObjectId("62980029788524711396a9eb"),
        "gAddress" : "1 Chappell Road, Droylsden, Manchester",
        "gCity" : "Manchester",
        "gId" : "ChIJ-edsLMm2e0gRawKdddcNi2M",
        "gLatitude" : 53.4845013,
        "gLongitude" : -2.1506061,
        "gName" : "Sues Fish and Chip Shop"
    },
    {
        "_id" : ObjectId("62980029788524711396a9ec"),
        "gAddress" : "209 Stockport Road, Stockport",
        "gCity" : "Stockport",
        "gId" : "ChIJ-eqesUOze0gRhCWQN1CvKEc",
        "gLatitude" : 53.4006993,
        "gLongitude" : -2.1930254,
        "gName" : "Farmers Arms"
    },
    {
        "_id" : ObjectId("62980029788524711396a9ed"),
        "gAddress" : "United Kingdom",
        "gCity" : "Manchester",
        "gId" : "ChIJ-fL9Avaxe0gRr6yVm9pH-HQ",
        "gLatitude" : 53.4561651,
        "gLongitude" : -2.2436555,
        "gName" : "Tasty Fried Chicken"
    },
    {
        "_id" : ObjectId("62980029788524711396a9ee"),
        "gAddress" : "76 North Western Street, Manchester",
        "gCity" : "Manchester",
        "gId" : "ChIJ-fNEg3JUekgRo_mMhdoDsjs",
        "gLatitude" : 53.473646,
        "gLongitude" : -2.218467,
        "gName" : "The Fit Controller Gym"
    },
    {
        "_id" : ObjectId("62980029788524711396a9ef"),
        "gAddress" : "Brunswick Mill, Bradford Road, Manchester",
        "gCity" : "Manchester",
        "gId" : "ChIJ-fYyhfqwe0gRUuKcmWa7C7k",
        "gLatitude" : 53.4855698,
        "gLongitude" : -2.2141142,
        "gName" : "Great Kings Fight Club"
    },
    {
        "_id" : ObjectId("62980029788524711396a9f0"),
        "gAddress" : "Imex Business Park, Manchester",
        "gCity" : "Manchester",
        "gId" : "ChIJ-fZ1ONaze0gRRU3gZus2BM8",
        "gLatitude" : 53.4526266,
        "gLongitude" : -2.1996886,
        "gName" : "Bibi's African Restaurant"
    },
    {
        "_id" : ObjectId("62980029788524711396a9f1"),
        "gAddress" : "Overseas House, Quay Street, Manchester",
        "gCity" : "Manchester",
        "gId" : "ChIJ-foxu8Kxe0gRIte2gfsGVLo",
        "gLatitude" : 53.4782759,
        "gLongitude" : -2.250193,
        "gName" : "Starbucks Coffee"
    },
    {
        "_id" : ObjectId("62980029788524711396a9f2"),
        "gAddress" : "44 Edilom Road, Manchester",
        "gCity" : "Manchester",
        "gId" : "ChIJ-ftqbj2we0gRHmAF7Yqi5dY",
        "gLatitude" : 53.519815,
        "gLongitude" : -2.2524393,
        "gName" : "Eweb Solution"
    },
    {
        "_id" : ObjectId("62980029788524711396a9f3"),
        "gAddress" : "136 Bury New Road, Whitefield, Manchester",
        "gCity" : "Manchester",
        "gId" : "ChIJ-xTKKVyle0gRiZ7W1bzVkBM",
        "gLatitude" : 53.5471295,
        "gLongitude" : -2.2926867,
        "gName" : "Yeast and Flour"
    },
    {
        "_id" : ObjectId("62980029788524711396a9f4"),
        "gAddress" : "Manchester 14 Prestwi ch Tew.kesbury Dr, M25 0HG, M25 0HG Manchester, Manchester",
        "gCity" : "Manchester",
        "gId" : "ChIJ-xsZUvSze0gRomwg5gDw38U",
        "gLatitude" : 53.4392402,
        "gLongitude" : -2.1600433,
        "gName" : "LWinterrowd Shops G KNuHjq"
    },
    {
        "_id" : ObjectId("62980029788524711396a9f5"),
        "gAddress" : "112 Sale Road, Wythenshawe, Manchester",
        "gCity" : "Manchester",
        "gId" : "ChIJ-ydqPHate0gRpx7H4OqlgpA",
        "gLatitude" : 53.411268,
        "gLongitude" : -2.276707,
        "gName" : "Hair And Beauty Lounge"
    },
    {
        "_id" : ObjectId("62980029788524711396a9f6"),
        "gAddress" : "485 Bury New Road, Prestwich, Manchester",
        "gCity" : "Manchester",
        "gId" : "ChIJ-z4DrfGve0gROyq4D9S_qA8",
        "gLatitude" : 53.5330953,
        "gLongitude" : -2.2857452,
        "gName" : "Butterfingers Coffee House"
    },
    {
        "_id" : ObjectId("62980029788524711396a9f7"),
        "gAddress" : "(above Ab Fab Hairdressers), 247 Heywood Road, Prestwich, Manchester",
        "gCity" : "Manchester",
        "gId" : "ChIJ-zrCweave0gRJSBmStK-fcA",
        "gLatitude" : 53.5397683,
        "gLongitude" : -2.2717521,
        "gName" : "The Nail Bar"
    },
    {
        "_id" : ObjectId("62980029788524711396a9f8"),
        "gAddress" : "Upper Lloyd Street, Manchester Area, Manchester",
        "gCity" : "Manchester",
        "gId" : "ChIJ0-GOBCCye0gRzZVdsuyt9i0",
        "gLatitude" : 53.4566207,
        "gLongitude" : -2.2366301,
        "gName" : "Greenheys Adult Learning Centre,college"
    },
    {
        "_id" : ObjectId("62980029788524711396a9f9"),
        "gAddress" : "10-14 Hilton Street, Manchester",
        "gCity" : "Manchester",
        "gId" : "ChIJ0-Uy0r6xe0gRv65DAxzAPRM",
        "gLatitude" : 53.4829846,
        "gLongitude" : -2.2348623,
        "gName" : "Body Northern Quarter"
    },
    {
        "_id" : ObjectId("62980029788524711396a9fa"),
        "gAddress" : "105 Cheetham Hill Road, Manchester",
        "gCity" : "Manchester",
        "gId" : "ChIJ00Fo8Mmxe0gRPmnqDg1YaA4",
        "gLatitude" : 53.4933208,
        "gLongitude" : -2.2400985,
        "gName" : "Alif Grill"
    },
    {
        "_id" : ObjectId("62980029788524711396a9fb"),
        "gAddress" : "Advantage Business Centre, 132-134 Great Ancoats Street, Manchester",
        "gCity" : "Manchester",
        "gId" : "ChIJ00qO2ryxe0gRj88KzFI4xG4",
        "gLatitude" : 53.481218,
        "gLongitude" : -2.226224,
        "gName" : "Spindrifters Ltd."
    },
    {
        "_id" : ObjectId("62980029788524711396a9fc"),
        "gAddress" : "469 Princess Road, Manchester",
        "gCity" : "Manchester",
        "gId" : "ChIJ01V9ZBGye0gRpriEd-YV8uM",
        "gLatitude" : 53.4403292,
        "gLongitude" : -2.2437993,
        "gName" : "Chicken Ranch Fusion"
    },
    {
        "_id" : ObjectId("62980029788524711396a9fd"),
        "gAddress" : "The Crescent, Salford",
        "gCity" : "Salford",
        "gId" : "ChIJ01fi2jyve0gRmZn1TG99_Ho",
        "gLatitude" : 53.4877587,
        "gLongitude" : -2.2707906,
        "gName" : "Peel Park"
    },
    {
        "_id" : ObjectId("62980029788524711396a9fe"),
        "gAddress" : "32 Laindon Road, Manchester",
        "gCity" : "Manchester",
        "gId" : "ChIJ01w-rSqye0gRx7G0pyWMfsE",
        "gLatitude" : 53.4560628,
        "gLongitude" : -2.2102667,
        "gName" : "Pure Health And Beauty"
    },
    {
        "_id" : ObjectId("62980029788524711396a9ff"),
        "gAddress" : "770 Wilmslow Road, Manchester",
        "gCity" : "Manchester",
        "gId" : "ChIJ02BU0l-ye0gR_7K0tLrdTJY",
        "gLatitude" : 53.4157229,
        "gLongitude" : -2.2321895,
        "gName" : "Famous Crown"
    },
    {
        "_id" : ObjectId("62980029788524711396aa00"),
        "gAddress" : "65 Chapel Street, Salford",
        "gCity" : "Salford",
        "gId" : "ChIJ02PM78Sxe0gR7q3J3Y37bG8",
        "gLatitude" : 53.4847553,
        "gLongitude" : -2.2495085,
        "gName" : "The Black Lion"
    },
    {
        "_id" : ObjectId("62980029788524711396aa01"),
        "gAddress" : "Walter Street, Rochdale Road, Manchester",
        "gCity" : "Manchester",
        "gId" : "ChIJ033SoPewe0gRk2r9xC_G4qs",
        "gLatitude" : 53.5133695,
        "gLongitude" : -2.2132811,
        "gName" : "McDonald's"
    },
    {
        "_id" : ObjectId("62980029788524711396aa02"),
        "gAddress" : "Lower Ormond Street, Manchester",
        "gCity" : "Manchester",
        "gId" : "ChIJ03Eq3uyxe0gRhMd8tjOWGPI",
        "gLatitude" : 53.469801,
        "gLongitude" : -2.239182,
        "gName" : "Research and Knowledge Exchange (RKE)"
    },
    {
        "_id" : ObjectId("62980029788524711396aa03"),
        "gAddress" : "116 Reddish La, Manchester",
        "gCity" : "Manchester",
        "gId" : "ChIJ03denf-ze0gRcuP6YwkUv6w",
        "gLatitude" : 53.4548719,
        "gLongitude" : -2.1587405,
        "gName" : "Buttylicious"
    },
    {
        "_id" : ObjectId("62980029788524711396aa04"),
        "gAddress" : "Sacred Trinity, Chapel Street, Manchester",
        "gCity" : "Manchester",
        "gId" : "ChIJ048Wz8Sxe0gRe4LKO3Cnn4s",
        "gLatitude" : 53.4846068,
        "gLongitude" : -2.2520016,
        "gName" : "The Altaer"
    },
    {
        "_id" : ObjectId("62980029788524711396aa05"),
        "gAddress" : "847 Stockport Road, Manchester",
        "gCity" : "Manchester",
        "gId" : "ChIJ05MH7sSze0gR2Wicw7nRnsY",
        "gLatitude" : 53.4441564,
        "gLongitude" : -2.1914601,
        "gName" : "Bar M19"
    },
    {
        "_id" : ObjectId("62980029788524711396aa06"),
        "gAddress" : "1701, City Heights Apartments, Victoria Bridge Street, Salford",
        "gCity" : "Salford",
        "gId" : "ChIJ06gOMMSxe0gR3ypb7NN0NsA",
        "gLatitude" : 53.484977,
        "gLongitude" : -2.2466238,
        "gName" : "Yogi Dee I Private yoga classes"
    },
    {
        "_id" : ObjectId("62980029788524711396aa07"),
        "gAddress" : "408 Wilbraham Road, Manchester",
        "gCity" : "Manchester",
        "gId" : "ChIJ07aFV_Cte0gR78fasy-CSf4",
        "gLatitude" : 53.4426612,
        "gLongitude" : -2.2715565,
        "gName" : "Sun Sun"
    },
    {
        "_id" : ObjectId("62980029788524711396aa08"),
        "gAddress" : "302 Lower Broughton Road, Salford",
        "gCity" : "Salford",
        "gId" : "ChIJ080rrS2we0gRpUxpmpHAjH4",
        "gLatitude" : 53.500298,
        "gLongitude" : -2.269869,
        "gName" : "Flawless Beauty"
    },
    {
        "_id" : ObjectId("62980029788524711396aa09"),
        "gAddress" : "Salford Quays - Media City, Unit 1, Block B1, Blue, Salford",
        "gCity" : "Salford",
        "gId" : "ChIJ08SKIGmue0gR0ZTgnm6xnFw",
        "gLatitude" : 53.4723423,
        "gLongitude" : -2.3000787,
        "gName" : "Costa Coffee"
    },
    {
        "_id" : ObjectId("62980029788524711396aa0a"),
        "gAddress" : "Express Networks, 1 George Leigh Street, Manchester",
        "gCity" : "Manchester",
        "gId" : "ChIJ08g13buxe0gRuYd23O1bjjQ",
        "gLatitude" : 53.4847273,
        "gLongitude" : -2.2313928,
        "gName" : "Olive Express"
    },
    {
        "_id" : ObjectId("62980029788524711396aa0b"),
        "gAddress" : "179 Minor Street, Failsworth, Manchester",
        "gCity" : "Manchester",
        "gId" : "ChIJ09VXLTq3e0gRGzfQsCKdnO0",
        "gLatitude" : 53.5165603,
        "gLongitude" : -2.1460016,
        "gName" : "City2visit.Com"
    },
    {
        "_id" : ObjectId("62980029788524711396aa0c"),
        "gAddress" : "The Locker, 2nd Floor, Houldsworth Mill, Stockport",
        "gCity" : "Stockport",
        "gId" : "ChIJ09ZtKfOze0gRDu5nA91hmOM",
        "gLatitude" : 53.4362347,
        "gLongitude" : -2.1657143,
        "gName" : "Achievable Fitness"
    },
    {
        "_id" : ObjectId("62980029788524711396aa0d"),
        "gAddress" : "145 Market Street, Droylsden, Manchester",
        "gCity" : "Manchester",
        "gId" : "ChIJ09mO68e2e0gRcZSbNy5vDmw",
        "gLatitude" : 53.4805376,
        "gLongitude" : -2.1451502,
        "gName" : "Beehive Inn"
    },
    {
        "_id" : ObjectId("62980029788524711396aa0e"),
        "gAddress" : "77 Piccadilly, Manchester",
        "gCity" : "Manchester",
        "gId" : "ChIJ09yA9b6xe0gROVtar56AGOY",
        "gLatitude" : 53.480546,
        "gLongitude" : -2.233992,
        "gName" : "Fit4Less Gym Manchester Piccadilly"
    },
    {
        "_id" : ObjectId("62980029788524711396aa0f"),
        "gAddress" : "Manchester",
        "gCity" : "Manchester",
        "gId" : "ChIJ0Q7MKvuwe0gR8R56dz7NmvM",
        "gLatitude" : 53.5079735,
        "gLongitude" : -2.2016442,
        "gName" : "White Eagle Home and Garden Services"
    },
    {
        "_id" : ObjectId("62980029788524711396aa10"),
        "gAddress" : "29 Ardwick Green North,, Ardwick Green,, Manchester",
        "gCity" : "Manchester",
        "gId" : "ChIJ0QTxs5Cxe0gRFXtPDf0qSYs",
        "gLatitude" : 53.4722038,
        "gLongitude" : -2.2256598,
        "gName" : "Act4tv (Manchester Studios)"
    },
    {
        "_id" : ObjectId("62980029788524711396aa11"),
        "gAddress" : "Hulme High Street Retail Park Greenheys Ln W, Hulme, Manchester M15 5AX",
        "gCity" : "Manchester M15 5AX",
        "gId" : "ChIJ0QUA1_Cxe0gRerpDXn9d8fc",
        "gLatitude" : 53.4624691,
        "gLongitude" : -2.2460832,
        "gName" : "KFC"
    },
    {
        "_id" : ObjectId("62980029788524711396aa12"),
        "gAddress" : "21 Plymouth Grove, Manchester",
        "gCity" : "Manchester",
        "gId" : "ChIJ0R_Joo-xe0gRd3KZL1F2MJc",
        "gLatitude" : 53.4650059,
        "gLongitude" : -2.2252211,
        "gName" : "Casa Manchester"
    },
    {
        "_id" : ObjectId("62980029788524711396aa13"),
        "gAddress" : "United Kingdom",
        "gCity" : "Manchester",
        "gId" : "ChIJ0RnrzJSxe0gRAj7BgsgszJY",
        "gLatitude" : 53.4741283,
        "gLongitude" : -2.2377784,
        "gName" : "Bottled Ales And Stout"
    },
    {
        "_id" : ObjectId("62980029788524711396aa14"),
        "gAddress" : "119 Oxford Road, Manchester",
        "gCity" : "Manchester",
        "gId" : "ChIJ0THuNJOxe0gRsIuhnVbJ5lM",
        "gLatitude" : 53.470848,
        "gLongitude" : -2.2373791,
        "gName" : "Popolino"
    },
    {
        "_id" : ObjectId("62980029788524711396aa15"),
        "gAddress" : "Universal beauty hair talk, 301 Edge Lane, Droylsden, Manchester",
        "gCity" : "Manchester",
        "gId" : "ChIJ0TkVdDaxe0gRLUOeWac56uM",
        "gLatitude" : 53.4806738,
        "gLongitude" : -2.1665316,
        "gName" : "Universal beauty hair talk"
    },
    {
        "_id" : ObjectId("62980029788524711396aa16"),
        "gAddress" : "333 Wellington Road North, Stockport",
        "gCity" : "Stockport",
        "gId" : "ChIJ0UVdYJaze0gRerrEP17Wdj0",
        "gLatitude" : 53.4289304,
        "gLongitude" : -2.1786596,
        "gName" : "Salt & Pepper cafe"
    },
    {
        "_id" : ObjectId("62980029788524711396aa17"),
        "gAddress" : "122 Bury New Road, Whitefield, Manchester",
        "gCity" : "Manchester",
        "gId" : "ChIJ0V4Q2uave0gRaMb5XwV3yqM",
        "gLatitude" : 53.5468551,
        "gLongitude" : -2.2923477,
        "gName" : "Roshans Hair, Beauty & Laser Clinic"
    },
    {
        "_id" : ObjectId("62980029788524711396aa18"),
        "gAddress" : "52 Oldfield Road, Salford",
        "gCity" : "Salford",
        "gId" : "ChIJ0VEKUSCue0gR8-NU2zGVHQ0",
        "gLatitude" : 53.4793888,
        "gLongitude" : -2.2673482,
        "gName" : "Master Yiu chippy"
    },
    {
        "_id" : ObjectId("62980029788524711396aa19"),
        "gAddress" : "762 Wilmslow Road, Manchester",
        "gCity" : "Manchester",
        "gId" : "ChIJ0VJkMV6ye0gRPMJTPxpfiIs",
        "gLatitude" : 53.416069,
        "gLongitude" : -2.232069,
        "gName" : "Caramello of Didsbury"
    },
    {
        "_id" : ObjectId("62980029788524711396aa1a"),
        "gAddress" : "325 Oxford Road, Manchester",
        "gCity" : "Manchester",
        "gId" : "ChIJ0VP6yI2xe0gRLOTK4VJvUkU",
        "gLatitude" : 53.4649154,
        "gLongitude" : -2.2319224,
        "gName" : "Kro Bar"
    },
    {
        "_id" : ObjectId("62980029788524711396aa1b"),
        "gAddress" : "126 Claremont Road, Manchester",
        "gCity" : "Manchester",
        "gId" : "ChIJ0VTGLByye0gRZpxb7L3DulM",
        "gLatitude" : 53.4532699,
        "gLongitude" : -2.2432825,
        "gName" : "J's Chicken & Pizza"
    },
    {
        "_id" : ObjectId("62980029788524711396aa1c"),
        "gAddress" : "67 Shaw Heath, Stockport",
        "gCity" : "Stockport",
        "gId" : "ChIJ0VhsgmOze0gRZ1enSPCV2W8",
        "gLatitude" : 53.4008133,
        "gLongitude" : -2.1591541,
        "gName" : "Aphrodite’s Greek Mediterranean Cuisine & Pizzeria"
    },
    {
        "_id" : ObjectId("62980029788524711396aa1d"),
        "gAddress" : "150 Deansgate, Manchester",
        "gCity" : "Manchester",
        "gId" : "ChIJ0VwSAsOxe0gRXLIEYZx4zY4",
        "gLatitude" : 53.4803142,
        "gLongitude" : -2.2487458,
        "gName" : "The John Rylands Library"
    },
    {
        "_id" : ObjectId("62980029788524711396aa1e"),
        "gAddress" : "39 School Lane, Stockport",
        "gCity" : "Stockport",
        "gId" : "ChIJ0WdIJ5eze0gRdPhz5xuTXLQ",
        "gLatitude" : 53.427458,
        "gLongitude" : -2.176293,
        "gName" : "The Barbecue"
    },
    {
        "_id" : ObjectId("62980029788524711396aa1f"),
        "gAddress" : "333-335 Palatine Road, Manchester",
        "gCity" : "Manchester",
        "gId" : "ChIJ0WdZuYGye0gR4AmihzZwDVc",
        "gLatitude" : 53.408864,
        "gLongitude" : -2.256697,
        "gName" : "The Good Catch - Northenden"
    },
    {
        "_id" : ObjectId("62980029788524711396aa20"),
        "gAddress" : "39 Button Lane, Wythenshawe, Manchester",
        "gCity" : "Manchester",
        "gId" : "ChIJ0WhyO6Cte0gRRe4cDUpFumA",
        "gLatitude" : 53.4137316,
        "gLongitude" : -2.2864001,
        "gName" : "Sunrise"
    },
    {
        "_id" : ObjectId("62980029788524711396aa21"),
        "gAddress" : "592 Stockport Road, Manchester",
        "gCity" : "Manchester",
        "gId" : "ChIJ0X6exdeze0gREZGUnnQ9B8c",
        "gLatitude" : 53.4559716,
        "gLongitude" : -2.1994914,
        "gName" : "Lazeeza Takeaway"
    },
    {
        "_id" : ObjectId("62980029788524711396aa22"),
        "gAddress" : "98 Bury New Road, Manchester",
        "gCity" : "Manchester",
        "gId" : "ChIJ0XY22l6le0gREf3hmwxsTfQ",
        "gLatitude" : 53.544795,
        "gLongitude" : -2.2907963,
        "gName" : "Beehive Inn"
    },
    {
        "_id" : ObjectId("62980029788524711396aa23"),
        "gAddress" : "Tamworth Street, Stockport",
        "gCity" : "Stockport",
        "gId" : "ChIJ0Xm9k4e0e0gREpevV57bfww",
        "gLatitude" : 53.4138138,
        "gLongitude" : -2.1431942,
        "gName" : "Newbridge Lane Conservative Club"
    },
    {
        "_id" : ObjectId("62980029788524711396aa24"),
        "gAddress" : "24 Princess Street, Manchester",
        "gCity" : "Manchester",
        "gId" : "ChIJ0XrK08Gxe0gRWeRLLAWaKFk",
        "gLatitude" : 53.4781347,
        "gLongitude" : -2.2417317,
        "gName" : "24 Bar & Grill"
    },
    {
        "_id" : ObjectId("62980029788524711396aa25"),
        "gAddress" : "114 Sale Road, Wythenshawe, Manchester",
        "gCity" : "Manchester",
        "gId" : "ChIJ0ZAzFHate0gRh4LTPy15jw8",
        "gLatitude" : 53.4112458,
        "gLongitude" : -2.2767703,
        "gName" : "Royal Balti"
    },
    {
        "_id" : ObjectId("62980029788524711396aa26"),
        "gAddress" : "Nell Lane, Manchester",
        "gCity" : "Manchester",
        "gId" : "ChIJ0ZGH6_Ste0gRvDCeT9E9tV8",
        "gLatitude" : 53.435668,
        "gLongitude" : -2.265672,
        "gName" : "YAFTA Sheffield"
    },
    {
        "_id" : ObjectId("62980029788524711396aa27"),
        "gAddress" : "1 Ashton Old Road, Manchester",
        "gCity" : "Manchester",
        "gId" : "ChIJ0_WqAUyxe0gRyG7CoPAkWQo",
        "gLatitude" : 53.4735855,
        "gLongitude" : -2.1659636,
        "gName" : "Morrisons Cafe"
    },
    {
        "_id" : ObjectId("62980029788524711396aa28"),
        "gAddress" : "86 Princess Street, Manchester",
        "gCity" : "Manchester",
        "gId" : "ChIJ0_rD1JSxe0gR3D8qTj11FPQ",
        "gLatitude" : 53.4748195,
        "gLongitude" : -2.2378733,
        "gName" : "中原餐厅"
    },
    {
        "_id" : ObjectId("62980029788524711396aa29"),
        "gAddress" : "147 Nell Lane, Manchester",
        "gCity" : "Manchester",
        "gId" : "ChIJ0boetW-ye0gRJdjXvqJ_hWQ",
        "gLatitude" : 53.4262285,
        "gLongitude" : -2.2451774,
        "gName" : "Thyme Out Food Co"
    },
    {
        "_id" : ObjectId("62980029788524711396aa2a"),
        "gAddress" : "17 Oak Street, Manchester",
        "gCity" : "Manchester",
        "gId" : "ChIJ0c89J7mxe0gR8GOKg497bSM",
        "gLatitude" : 53.4844271,
        "gLongitude" : -2.2357102,
        "gName" : "Cafe"
    },
    {
        "_id" : ObjectId("62980029788524711396aa2b"),
        "gAddress" : "17 Oak Street, Manchester",
        "gCity" : "Manchester",
        "gId" : "ChIJ0c89J7mxe0gRD6URbl9e77c",
        "gLatitude" : 53.4843733,
        "gLongitude" : -2.2356025,
        "gName" : "Oak Street Cafe"
    },
    {
        "_id" : ObjectId("62980029788524711396aa2c"),
        "gAddress" : "Regent Trading Estate, Oldfield Road, Salford",
        "gCity" : "Salford",
        "gId" : "ChIJ0cIoXN-xe0gRtfx-kVf1DHA",
        "gLatitude" : 53.481515,
        "gLongitude" : -2.2643546,
        "gName" : "Atta & Aslam Travel"
    },
    {
        "_id" : ObjectId("62980029788524711396aa2d"),
        "gAddress" : "178 Yew Tree Rd, Manchester",
        "gCity" : "Manchester",
        "gId" : "ChIJ0ceC_zyye0gRXgoUZAN9R-k",
        "gLatitude" : 53.4427639,
        "gLongitude" : -2.2318581,
        "gName" : "Mel Hartley, Travel Counsellors"
    },
    {
        "_id" : ObjectId("62980029788524711396aa2e"),
        "gAddress" : "Joseph Leigh House, 8 Wellington Street, Stockport",
        "gCity" : "Stockport",
        "gId" : "ChIJ0cxb1H2ze0gRbFeAarM4j-E",
        "gLatitude" : 53.4077032,
        "gLongitude" : -2.1597528,
        "gName" : "Zyn Travel UK"
    },
    {
        "_id" : ObjectId("62980029788524711396aa2f"),
        "gAddress" : "121 Princess Road, Manchester",
        "gCity" : "Manchester",
        "gId" : "ChIJ0dDRkx2ye0gRvwrtIcfb_k4",
        "gLatitude" : 53.4555208,
        "gLongitude" : -2.2448257,
        "gName" : "Princess Internet Cafe"
    },
    {
        "_id" : ObjectId("62980029788524711396aa30"),
        "gAddress" : "17 Charles Avenue, Audenshaw, Manchester",
        "gCity" : "Manchester",
        "gId" : "ChIJ0dZWErq2e0gRzfR3tu9yuUg",
        "gLatitude" : 53.4728835,
        "gLongitude" : -2.1449405,
        "gName" : "Takbeer Tourism Group"
    },
    {
        "_id" : ObjectId("62980029788524711396aa31"),
        "gAddress" : "Higher Chatham Street, Manchester",
        "gCity" : "Manchester",
        "gId" : "ChIJ0dcfIu2xe0gR4z5gPixsGms",
        "gLatitude" : 53.4677238,
        "gLongitude" : -2.2382291,
        "gName" : "Center of Excellence"
    },
    {
        "_id" : ObjectId("62980029788524711396aa32"),
        "gAddress" : "79-81 Bridge Street, Manchester",
        "gCity" : "Manchester",
        "gId" : "ChIJ0eC6W22je0gRIDbWHI2OYNE",
        "gLatitude" : 53.481064,
        "gLongitude" : -2.249011,
        "gName" : "Cafe Istanbul"
    },
    {
        "_id" : ObjectId("62980029788524711396aa33"),
        "gAddress" : "72 School Lane, Manchester",
        "gCity" : "Manchester",
        "gId" : "ChIJ0eDNOVmye0gREcJrOgBR2u8",
        "gLatitude" : 53.4169552,
        "gLongitude" : -2.2258962,
        "gName" : "New Peking House"
    },
    {
        "_id" : ObjectId("62980029788524711396aa34"),
        "gAddress" : "120-122 Barlow Moor Road, Manchester",
        "gCity" : "Manchester",
        "gId" : "ChIJ0ecVR2Wye0gRd0fMNjr-n2k",
        "gLatitude" : 53.4218813,
        "gLongitude" : -2.2442041,
        "gName" : "Albert's Restaurant & Bar"
    },
    {
        "_id" : ObjectId("62980029788524711396aa35"),
        "gAddress" : "27-29 Princess Street, Manchester",
        "gCity" : "Manchester",
        "gId" : "ChIJ0f8shcGxe0gRKhBwMdxtF14",
        "gLatitude" : 53.4798271,
        "gLongitude" : -2.2441301,
        "gName" : "Costa Coffee"
    },
    {
        "_id" : ObjectId("62980029788524711396aa36"),
        "gAddress" : "190 Higher Hillgate, Stockport",
        "gCity" : "Stockport",
        "gId" : "ChIJ0f9edWKze0gRciOJzsEXYIc",
        "gLatitude" : 53.3996586,
        "gLongitude" : -2.1532934,
        "gName" : "Red Maple Chinese"
    },
    {
        "_id" : ObjectId("62980029788524711396aa37"),
        "gAddress" : "10 Copson Street, Manchester",
        "gCity" : "Manchester",
        "gId" : "ChIJ0fMelkCye0gR-UjqjfhwErc",
        "gLatitude" : 53.4338923,
        "gLongitude" : -2.2294962,
        "gName" : "Al-Rayyan"
    },
    {
        "_id" : ObjectId("62980029788524711396aa38"),
        "gAddress" : "19 Copson Street, Manchester",
        "gCity" : "Manchester",
        "gId" : "ChIJ0fMelkCye0gRDVXAyZ7BFqY",
        "gLatitude" : 53.4337953,
        "gLongitude" : -2.2296738,
        "gName" : "DosaXpress"
    },
    {
        "_id" : ObjectId("62980029788524711396aa39"),
        "gAddress" : "492 Bury New Road, Prestwich, Manchester",
        "gCity" : "Manchester",
        "gId" : "ChIJ0foxG_Gve0gREljjEM0b090",
        "gLatitude" : 53.5339238,
        "gLongitude" : -2.2856119,
        "gName" : "M&S Prestwich Simply Food"
    },
    {
        "_id" : ObjectId("62980029788524711396aa3a"),
        "gAddress" : "3 School Lane, Manchester",
        "gCity" : "Manchester",
        "gId" : "ChIJ0wFib16ye0gR7SqFE_8LLh4",
        "gLatitude" : 53.417446,
        "gLongitude" : -2.228405,
        "gName" : "Results Inc. Gym"
    },
    {
        "_id" : ObjectId("62980029788524711396aa3b"),
        "gAddress" : "12 Gwendor Av, Manchester",
        "gCity" : "Manchester",
        "gId" : "ChIJ0wcc0xWwe0gR-M-lXYq8XLU",
        "gLatitude" : 53.5234496,
        "gLongitude" : -2.2479074,
        "gName" : "Elizabeth Harfleet"
    },
    {
        "_id" : ObjectId("62980029788524711396aa3c"),
        "gAddress" : "United Kingdom",
        "gCity" : "Droylsden",
        "gId" : "ChIJ0xWXvMe2e0gR64mEK7huRC8",
        "gLatitude" : 53.4810788,
        "gLongitude" : -2.1442248,
        "gName" : "Spice Jar"
    },
    {
        "_id" : ObjectId("62980029788524711396aa3d"),
        "gAddress" : "28 G, Limetrees Road, Manchester",
        "gCity" : "Manchester",
        "gId" : "ChIJ0xe013a6e0gRdJMBrZdDu2s",
        "gLatitude" : 53.5480043,
        "gLongitude" : -2.2009138,
        "gName" : "Greggs"
    },
    {
        "_id" : ObjectId("62980029788524711396aa3e"),
        "gAddress" : "20 Saint Mary's Parsonage, Manchester",
        "gCity" : "Manchester",
        "gId" : "ChIJ0xohcHTQekgRYB6EKVdTIWI",
        "gLatitude" : 53.4824614,
        "gLongitude" : -2.2495024,
        "gName" : "Co-operative Travel"
    },
    {
        "_id" : ObjectId("62980029788524711396aa3f"),
        "gAddress" : "135 Victoria Avenue, Manchester",
        "gCity" : "Manchester",
        "gId" : "ChIJ0yBFb32we0gR3dHd-7ULvAQ",
        "gLatitude" : 53.5339744,
        "gLongitude" : -2.2173498,
        "gName" : "Toro house"
    },
    {
        "_id" : ObjectId("62980029788524711396aa40"),
        "gAddress" : "59 Ayres Road, Stretford, Manchester",
        "gCity" : "Manchester",
        "gId" : "ChIJ0yDFxwGue0gRBA6wsrhsfUA",
        "gLatitude" : 53.4590519,
        "gLongitude" : -2.2644289,
        "gName" : "Staropolska"
    },
    {
        "_id" : ObjectId("62980029788524711396aa41"),
        "gAddress" : "Morton Street, Failsworth, Manchester",
        "gCity" : "Manchester",
        "gId" : "ChIJ0yjewdmwe0gRuQtT1SS7pMM",
        "gLatitude" : 53.5051852,
        "gLongitude" : -2.1759638,
        "gName" : "Mac's Gym"
    },
    {
        "_id" : ObjectId("62980029788524711396aa42"),
        "gAddress" : "341 Wilmslow Rd, Ladybarn",
        "gCity" : "Ladybarn",
        "gId" : "ChIJ0zXw2DCye0gRUIMVt2iVEu0",
        "gLatitude" : 53.4408694,
        "gLongitude" : -2.2180672,
        "gName" : "About Thai Taste"
    },
    {
        "_id" : ObjectId("62980029788524711396aa43"),
        "gAddress" : "484 Cheetham Hill Road, Manchester",
        "gCity" : "Manchester",
        "gId" : "ChIJ0zudMjiwe0gRU08tfpVvgjw",
        "gLatitude" : 53.510774,
        "gLongitude" : -2.244032,
        "gName" : "abaseen"
    },
    {
        "_id" : ObjectId("62980029788524711396aa44"),
        "gAddress" : "Liverpool Road, Manchester",
        "gCity" : "Manchester",
        "gId" : "ChIJ1-CiReexe0gRJWdWq3rpDnk",
        "gLatitude" : 53.4767017,
        "gLongitude" : -2.2568002,
        "gName" : "YMCA"
    },
    {
        "_id" : ObjectId("62980029788524711396aa45"),
        "gAddress" : "Heaton Moor House, 168 Heaton Moor Road, Stockport",
        "gCity" : "Stockport",
        "gId" : "ChIJ10prqKaze0gRE0GY7RrS7HQ",
        "gLatitude" : 53.4190968,
        "gLongitude" : -2.1885202,
        "gName" : "Masterchef Restaurant"
    },
    {
        "_id" : ObjectId("62980029788524711396aa46"),
        "gAddress" : "351-359 Palatine Road, Manchester",
        "gCity" : "Manchester",
        "gId" : "ChIJ11P_7IGye0gRA_zkcJzB6gU",
        "gLatitude" : 53.4079865,
        "gLongitude" : -2.2572792,
        "gName" : "The Palatine"
    },
    {
        "_id" : ObjectId("62980029788524711396aa47"),
        "gAddress" : "383 Palatine Road, Manchester",
        "gCity" : "Manchester",
        "gId" : "ChIJ11P_7IGye0gRDFCPPVW8kqE",
        "gLatitude" : 53.407679,
        "gLongitude" : -2.257806,
        "gName" : "Robin Hood"
    },
    {
        "_id" : ObjectId("62980029788524711396aa48"),
        "gAddress" : "349 Palatine Road, Wythenshawe, Manchester",
        "gCity" : "Manchester",
        "gId" : "ChIJ11P_7IGye0gRmAkawN-IfxM",
        "gLatitude" : 53.408395,
        "gLongitude" : -2.2570889,
        "gName" : "Bronze Beauty"
    },
    {
        "_id" : ObjectId("62980029788524711396aa49"),
        "gAddress" : "25 Copson Street, Manchester",
        "gCity" : "Manchester",
        "gId" : "ChIJ11QNvECye0gRlhtqet6xZ2Q",
        "gLatitude" : 53.4337949,
        "gLongitude" : -2.2298434,
        "gName" : "Bens Hole"
    },
    {
        "_id" : ObjectId("62980029788524711396aa4a"),
        "gAddress" : "10 Stamford Road, Manchester Area, Manchester",
        "gCity" : "Manchester",
        "gId" : "ChIJ11bXudeze0gRC3QWYk7S5_E",
        "gLatitude" : 53.4552684,
        "gLongitude" : -2.1994963,
        "gName" : "Nayan Video Travel Service"
    },
    {
        "_id" : ObjectId("62980029788524711396aa4b"),
        "gAddress" : "155 Eccles New Road, Salford",
        "gCity" : "Salford",
        "gId" : "ChIJ11zGdD-ue0gRL-c0R06MS64",
        "gLatitude" : 53.4797227,
        "gLongitude" : -2.2893503,
        "gName" : "Eat Well Fish & Chips & Chinese Takeaway"
    },
    {
        "_id" : ObjectId("62980029788524711396aa4c"),
        "gAddress" : "61 Saint Petersgate, Stockport",
        "gCity" : "Stockport",
        "gId" : "ChIJ12fLoX6ze0gR_tM7WOyXUf4",
        "gLatitude" : 53.4088855,
        "gLongitude" : -2.1594749,
        "gName" : "Lo Co Holidays"
    },
    {
        "_id" : ObjectId("62980029788524711396aa4d"),
        "gAddress" : "1 School Lane, Manchester",
        "gCity" : "Manchester",
        "gId" : "ChIJ14_flV6ye0gRrUsjDBDWoRs",
        "gLatitude" : 53.4174359,
        "gLongitude" : -2.2284573,
        "gName" : "Didsbury Fish Bar"
    },
    {
        "_id" : ObjectId("62980029788524711396aa4e"),
        "gAddress" : "New Court Street, Manchester",
        "gCity" : "Manchester",
        "gId" : "ChIJ16dY-tyxe0gRUXt8nxaqIbU",
        "gLatitude" : 53.480718,
        "gLongitude" : -2.254246,
        "gName" : "Beastro"
    },
    {
        "_id" : ObjectId("62980029788524711396aa4f"),
        "gAddress" : "1, Failsworth Shopping Centre, Oldham Road, Failsworth, Manchester",
        "gCity" : "Manchester",
        "gId" : "ChIJ16jj7NOwe0gRx48L2zqZldc",
        "gLatitude" : 53.5095289,
        "gLongitude" : -2.1586049,
        "gName" : "Thomas Cook Travel Ltd"
    },
    {
        "_id" : ObjectId("62980029788524711396aa50"),
        "gAddress" : "-96, 94 Grosvenor Street, Manchester",
        "gCity" : "Manchester",
        "gId" : "ChIJ16lMc5Oxe0gRyhXqQd7GsSg",
        "gLatitude" : 53.4710527,
        "gLongitude" : -2.2348495,
        "gName" : "The Live Room"
    },
    {
        "_id" : ObjectId("62980029788524711396aa51"),
        "gAddress" : "28-31 Barton Square, Manchester",
        "gCity" : "Manchester",
        "gId" : "ChIJ17NV8cOxe0gRGYKsCnXdZfo",
        "gLatitude" : 53.4826501,
        "gLongitude" : -2.2463843,
        "gName" : "Global Travel Investments"
    },
    {
        "_id" : ObjectId("62980029788524711396aa52"),
        "gAddress" : "508 Moss Lane East, Manchester",
        "gCity" : "Manchester",
        "gId" : "ChIJ186_yYmxe0gR00-0chIz7Jg",
        "gLatitude" : 53.457689,
        "gLongitude" : -2.227269,
        "gName" : "The Anchor Coffee House"
    },
    {
        "_id" : ObjectId("62980029788524711396aa53"),
        "gAddress" : "PF Jones, Nuttall Street, Old Trafford, Manchester",
        "gCity" : "Manchester",
        "gId" : "ChIJ188ZhwSue0gR3Is0hlplit4",
        "gLatitude" : 53.4636087,
        "gLongitude" : -2.2700278,
        "gName" : "Bailey Italia"
    },
    {
        "_id" : ObjectId("62980029788524711396aa54"),
        "gAddress" : "8 Shaw Road, Stockport",
        "gCity" : "Stockport",
        "gId" : "ChIJ18BCO6Oze0gRVoted-ShJmY",
        "gLatitude" : 53.4231479,
        "gLongitude" : -2.1846031,
        "gName" : "Kushoom Koly Restaurant"
    },
    {
        "_id" : ObjectId("62980029788524711396aa55"),
        "gAddress" : "280 Moston Lane, Manchester",
        "gCity" : "Manchester",
        "gId" : "ChIJ19a8Ve6we0gRh8YEsvmLqqk",
        "gLatitude" : 53.5138534,
        "gLongitude" : -2.1985266,
        "gName" : "Holly B Hair & Beauty"
    },
    {
        "_id" : ObjectId("62980029788524711396aa56"),
        "gAddress" : "55 Kingsway, Manchester",
        "gCity" : "Manchester",
        "gId" : "ChIJ19iKFsyze0gRg4rgkNI2dxA",
        "gLatitude" : 53.441718,
        "gLongitude" : -2.203592,
        "gName" : "Tasty Bite"
    },
    {
        "_id" : ObjectId("62980029788524711396aa57"),
        "gAddress" : "55 Kingsway, Manchester",
        "gCity" : "Manchester",
        "gId" : "ChIJ19iKFsyze0gRoram4pbAmAM",
        "gLatitude" : 53.441718,
        "gLongitude" : -2.203592,
        "gName" : "Chicken Bucket"
    },
    {
        "_id" : ObjectId("62980029788524711396aa58"),
        "gAddress" : "Unit 23-24 Failsworth Industrial Estate, Failsworth, Manchester",
        "gCity" : "Manchester",
        "gId" : "ChIJ19y2lNmwe0gRvei8QFpYitI",
        "gLatitude" : 53.504601,
        "gLongitude" : -2.175176,
        "gName" : "Failsworth Fitness Gym & Fitness Centre"
    },
    {
        "_id" : ObjectId("62980029788524711396aa59"),
        "gAddress" : "68 Hulme Road, Denton, Manchester",
        "gCity" : "Manchester",
        "gId" : "ChIJ1QC52By0e0gR14qJQHgCV7U",
        "gLatitude" : 53.4540662,
        "gLongitude" : -2.143568,
        "gName" : "Golden Dragon"
    },
    {
        "_id" : ObjectId("62980029788524711396aa5a"),
        "gAddress" : "Hulme Road, Denton, Manchester",
        "gCity" : "Manchester",
        "gId" : "ChIJ1QC52By0e0gRq9Z8ZdiOUZA",
        "gLatitude" : 53.4539339,
        "gLongitude" : -2.1437885,
        "gName" : "The Windmill Stonehouse"
    },
    {
        "_id" : ObjectId("62980029788524711396aa5b"),
        "gAddress" : "27 Lloyd Street South, Manchester",
        "gCity" : "Manchester",
        "gId" : "ChIJ1QKf0hiye0gRoHj5EMRI7x4",
        "gLatitude" : 53.4505948,
        "gLongitude" : -2.2383719,
        "gName" : "MCR Barber Supplies T/A BJ Products"
    },
    {
        "_id" : ObjectId("62980029788524711396aa5c"),
        "gAddress" : "264 Wilmslow Road, Manchester",
        "gCity" : "Manchester",
        "gId" : "ChIJ1QQAHjGye0gR9y8gAyQX1es",
        "gLatitude" : 53.4418856,
        "gLongitude" : -2.2187916,
        "gName" : "Fuzion Noodle Bar"
    },
    {
        "_id" : ObjectId("62980029788524711396aa5d"),
        "gAddress" : "Churchill Way, Salford",
        "gCity" : "Salford",
        "gId" : "ChIJ1QhNITque0gRJ9QdFfOQ1_Y",
        "gLatitude" : 53.486411,
        "gLongitude" : -2.284951,
        "gName" : "Winston"
    },
    {
        "_id" : ObjectId("62980029788524711396aa5e"),
        "gAddress" : "15 Bloom Street, Manchester",
        "gCity" : "Manchester",
        "gId" : "ChIJ1QrJ4b-xe0gRW8OQUw2DXw8",
        "gLatitude" : 53.4778933,
        "gLongitude" : -2.2368771,
        "gName" : "Richmond House"
    },
    {
        "_id" : ObjectId("62980029788524711396aa5f"),
        "gAddress" : "104 Wilmslow Road, Manchester",
        "gCity" : "Manchester",
        "gId" : "ChIJ1RBcLCaye0gRS5HpYq-BrsI",
        "gLatitude" : 53.4534954,
        "gLongitude" : -2.2236212,
        "gName" : "Cavalli Shisha Lounge"
    },
    {
        "_id" : ObjectId("62980029788524711396aa60"),
        "gAddress" : "Palatine Road, Manchester",
        "gCity" : "Manchester",
        "gId" : "ChIJ1SgOY2iye0gRpjyQufdtSPA",
        "gLatitude" : 53.4250391,
        "gLongitude" : -2.2367604,
        "gName" : "The Northern"
    },
    {
        "_id" : ObjectId("62980029788524711396aa61"),
        "gAddress" : "888 Oldham Road, Manchester",
        "gCity" : "Manchester",
        "gId" : "ChIJ1SvktQKxe0gRqjvblut8jxA",
        "gLatitude" : 53.4985456,
        "gLongitude" : -2.2015053,
        "gName" : "888 Restaurant"
    },
    {
        "_id" : ObjectId("62980029788524711396aa62"),
        "gAddress" : "354 Moston Lane, Manchester",
        "gCity" : "Manchester",
        "gId" : "ChIJ1TUSKumwe0gRopUFroeVzL0",
        "gLatitude" : 53.5136868,
        "gLongitude" : -2.194828,
        "gName" : "Bengal Spice Indian Takeaway"
    },
    {
        "_id" : ObjectId("62980029788524711396aa63"),
        "gAddress" : "Belmont Street, Stockport",
        "gCity" : "Stockport",
        "gId" : "ChIJ1Uu_TByze0gRfmCVPHrSlGg",
        "gLatitude" : 53.4173265,
        "gLongitude" : -2.1663447,
        "gName" : "New Tai Wah"
    },
    {
        "_id" : ObjectId("62980029788524711396aa64"),
        "gAddress" : "16A Carrington Road, Stockport",
        "gCity" : "Stockport",
        "gId" : "ChIJ1VSWtmK0e0gR9aXmsyQrTGs",
        "gLatitude" : 53.4156854,
        "gLongitude" : -2.1410312,
        "gName" : "Haute Tarentaise"
    },
    {
        "_id" : ObjectId("62980029788524711396aa65"),
        "gAddress" : "770 Wilmslow Road, Manchester",
        "gCity" : "Manchester",
        "gId" : "ChIJ1VdfLV6ye0gRiLx9M3VKDNk",
        "gLatitude" : 53.4157256,
        "gLongitude" : -2.2322647,
        "gName" : "Thai Takeaway/The Crown"
    },
    {
        "_id" : ObjectId("62980029788524711396aa66"),
        "gAddress" : "344 Dickenson Road, Manchester",
        "gCity" : "Manchester",
        "gId" : "ChIJ1W-UC9aze0gRuxKqD1aVbZA",
        "gLatitude" : 53.4556564,
        "gLongitude" : -2.2032514,
        "gName" : "Youngs fish and chip shop"
    },
    {
        "_id" : ObjectId("62980029788524711396aa67"),
        "gAddress" : "571 Cheetham Hill Road, Manchester",
        "gCity" : "Manchester",
        "gId" : "ChIJ1W6Otzmwe0gRa2hTSuZUZ8U",
        "gLatitude" : 53.5115347,
        "gLongitude" : -2.245024,
        "gName" : "Nail Chicz"
    },
    {
        "_id" : ObjectId("62980029788524711396aa68"),
        "gAddress" : "313 Lower Broughton Road, Salford",
        "gCity" : "Salford",
        "gId" : "ChIJ1WBEKSuue0gR-nFoXgCE-uk",
        "gLatitude" : 53.4983712,
        "gLongitude" : -2.2699693,
        "gName" : "Chito-BAA Beauty Salon"
    },
    {
        "_id" : ObjectId("62980029788524711396aa69"),
        "gAddress" : "74A Stanley Grove, Manchester",
        "gCity" : "Manchester",
        "gId" : "ChIJ1X32jmKxe0gRTJ12MlbBXMg",
        "gLatitude" : 53.4577489,
        "gLongitude" : -2.1945691,
        "gName" : "The Huntington"
    },
    {
        "_id" : ObjectId("62980029788524711396aa6a"),
        "gAddress" : "581 Cheetham Hill Road, Manchester",
        "gCity" : "Manchester",
        "gId" : "ChIJ1Y6qtzmwe0gRW69MPrggX8g",
        "gLatitude" : 53.5115936,
        "gLongitude" : -2.2448771,
        "gName" : "Tehran Restaurant & Takeaway"
    },
    {
        "_id" : ObjectId("62980029788524711396aa6b"),
        "gAddress" : "2FB, Wood Street, Manchester",
        "gCity" : "Manchester",
        "gId" : "ChIJ1YwZlUGxe0gRh5snwp96bfg",
        "gLatitude" : 53.4745671,
        "gLongitude" : -2.1836487,
        "gName" : "VPA Church"
    },
    {
        "_id" : ObjectId("62980029788524711396aa6c"),
        "gAddress" : "111 Piccadilly, Manchester",
        "gCity" : "Manchester",
        "gId" : "ChIJ1YyBgRhNekgRl582b5ohrpk",
        "gLatitude" : 53.4793899,
        "gLongitude" : -2.2326796,
        "gName" : "CTI Business Travel, Manchester"
    },
    {
        "_id" : ObjectId("62980029788524711396aa6d"),
        "gAddress" : "United Kingdom",
        "gCity" : "Manchester",
        "gId" : "ChIJ1Z4JLSaye0gRZB9dFi8ah3g",
        "gLatitude" : 53.4535262,
        "gLongitude" : -2.2237767,
        "gName" : "W Lounge"
    },
    {
        "_id" : ObjectId("62980029788524711396aa6e"),
        "gAddress" : "281 Middleton Road, Manchester",
        "gCity" : "Manchester",
        "gId" : "ChIJ1ZD5txOwe0gRH2tQNAMaeKY",
        "gLatitude" : 53.5280348,
        "gLongitude" : -2.2472985,
        "gName" : "Cheers Bar"
    },
    {
        "_id" : ObjectId("62980029788524711396aa6f"),
        "gAddress" : "Shaw Heath, Stockport",
        "gCity" : "Stockport",
        "gId" : "ChIJ1ZG2g2Oze0gRp4dXOEQ4Boc",
        "gLatitude" : 53.4006466,
        "gLongitude" : -2.1595363,
        "gName" : "Brooklyn Pottery"
    },
    {
        "_id" : ObjectId("62980029788524711396aa70"),
        "gAddress" : "14 John Dalton Street, Manchester",
        "gCity" : "Manchester",
        "gId" : "ChIJ1ZTOs8Oxe0gRwOVUUK7mfuQ",
        "gLatitude" : 53.4804766,
        "gLongitude" : -2.2470765,
        "gName" : "Panacea Manchester"
    },
    {
        "_id" : ObjectId("62980029788524711396aa71"),
        "gAddress" : "2 Lapwing Lane, Manchester",
        "gCity" : "Manchester",
        "gId" : "ChIJ1ZmlU46ze0gR7YtUZ_MveLg",
        "gLatitude" : 53.4278116,
        "gLongitude" : -2.2411157,
        "gName" : "The Metropolitan"
    },
    {
        "_id" : ObjectId("62980029788524711396aa72"),
        "gAddress" : "Stockport Road, Manchester",
        "gCity" : "Manchester",
        "gId" : "ChIJ1Zx2z9mze0gR_07ViALsk4U",
        "gLatitude" : 53.4535889,
        "gLongitude" : -2.1958157,
        "gName" : "Amazing Travel & Tours"
    },
    {
        "_id" : ObjectId("62980029788524711396aa73"),
        "gAddress" : "2 Bury New Road, Manchester",
        "gCity" : "Manchester",
        "gId" : "ChIJ1_5PftKxe0gRM29xKAUE7fY",
        "gLatitude" : 53.4960364,
        "gLongitude" : -2.2525546,
        "gName" : "Grosvenor Casino Manchester Bury New Road"
    },
    {
        "_id" : ObjectId("62980029788524711396aa74"),
        "gAddress" : "2 Ramsgate Street, Manchester",
        "gCity" : "Manchester",
        "gId" : "ChIJ1_5PftKxe0gRU3Whmg2YMsQ",
        "gLatitude" : 53.4963353,
        "gLongitude" : -2.2527831,
        "gName" : "Gallery Restaurant"
    },
    {
        "_id" : ObjectId("62980029788524711396aa75"),
        "gAddress" : "Ford Lane, Manchester",
        "gCity" : "Manchester",
        "gId" : "ChIJ1_m3VYqye0gRGjbOco75oyg",
        "gLatitude" : 53.41229,
        "gLongitude" : -2.2388692,
        "gName" : "Didsbury Sports Ground"
    },
    {
        "_id" : ObjectId("62980029788524711396aa76"),
        "gAddress" : "Number One, Spinningfields Square, Quay Street, Manchester",
        "gCity" : "Manchester",
        "gId" : "ChIJ1aQ4Nt2xe0gRCgO5NFoa5uc",
        "gLatitude" : 53.4789231,
        "gLongitude" : -2.2519713,
        "gName" : "VST Enterprises"
    },
    {
        "_id" : ObjectId("62980029788524711396aa77"),
        "gAddress" : "592 Gorton Road, Stockport",
        "gCity" : "Stockport",
        "gId" : "ChIJ1aXEX_-ze0gRDzUXsn5S-Zs",
        "gLatitude" : 53.4536282,
        "gLongitude" : -2.1576382,
        "gName" : "The Dolphin"
    },
    {
        "_id" : ObjectId("62980029788524711396aa78"),
        "gAddress" : "14 Hardman Lane, Failsworth, Manchester",
        "gCity" : "Manchester",
        "gId" : "ChIJ1aZ1vtKwe0gRM03vFM9v9aU",
        "gLatitude" : 53.5106616,
        "gLongitude" : -2.1636389,
        "gName" : "Bricklayers"
    },
    {
        "_id" : ObjectId("62980029788524711396aa79"),
        "gAddress" : "97 North Western Street, Manchester",
        "gCity" : "Manchester",
        "gId" : "ChIJ1bFrq5mxe0gRKHDU6RaPkqU",
        "gLatitude" : 53.4751539,
        "gLongitude" : -2.2217274,
        "gName" : "Frontline Fit Performance Centre"
    },
    {
        "_id" : ObjectId("62980029788524711396aa7a"),
        "gAddress" : "58, Queensmere Shopping Centre,, Slough",
        "gCity" : "Slough",
        "gId" : "ChIJ1bHv-36ze0gRHvMUqxqN34A",
        "gLatitude" : 53.411269,
        "gLongitude" : -2.157935,
        "gName" : "Adorn Beauty"
    },
    {
        "_id" : ObjectId("62980029788524711396aa7b"),
        "gAddress" : "Ashton Road East, Failsworth, Manchester",
        "gCity" : "Manchester",
        "gId" : "ChIJ1bNvpyW3e0gRIEHHS1imqyo",
        "gLatitude" : 53.5104204,
        "gLongitude" : -2.1503675,
        "gName" : "The Cotton Tree"
    },
    {
        "_id" : ObjectId("62980029788524711396aa7c"),
        "gAddress" : "256a Wilmslow Road, Manchester",
        "gCity" : "Manchester",
        "gId" : "ChIJ1ccc0yeye0gR2gX9AwvoWgE",
        "gLatitude" : 53.4430593,
        "gLongitude" : -2.2186961,
        "gName" : "The Beer Studio"
    },
    {
        "_id" : ObjectId("62980029788524711396aa7d"),
        "gAddress" : "271 - 273 Upper Brook Street, Manchester",
        "gCity" : "Manchester",
        "gId" : "ChIJ1d-pboaxe0gR5D9myo535kI",
        "gLatitude" : 53.460758,
        "gLongitude" : -2.2216453,
        "gName" : "Subway"
    },
    {
        "_id" : ObjectId("62980029788524711396aa7e"),
        "gAddress" : "89 Ayres Road, Manchester",
        "gCity" : "Manchester",
        "gId" : "ChIJ1e0lHwGue0gRRXHGC0wZ9yY",
        "gLatitude" : 53.4585388,
        "gLongitude" : -2.2673275,
        "gName" : "Spices of Kashmir"
    },
    {
        "_id" : ObjectId("62980029788524711396aa7f"),
        "gAddress" : "49-51 Mount Road, Middleton, Manchester",
        "gCity" : "Manchester",
        "gId" : "ChIJ1e2I_3W6e0gRnIqMBzAbCcM",
        "gLatitude" : 53.5434558,
        "gLongitude" : -2.1947908,
        "gName" : "David Roberts Physio Middleton"
    },
    {
        "_id" : ObjectId("62980029788524711396aa80"),
        "gAddress" : "United Kingdom",
        "gCity" : "Manchester",
        "gId" : "ChIJ1e7_a7Kze0gRqWyHeihBSg4",
        "gLatitude" : 53.4253573,
        "gLongitude" : -2.2031894,
        "gName" : "Yummy Fish & Chips"
    },
    {
        "_id" : ObjectId("62980029788524711396aa81"),
        "gAddress" : "568 Stockport Road, Manchester",
        "gCity" : "Manchester",
        "gId" : "ChIJ1e9G1Neze0gRuHwNqujrinM",
        "gLatitude" : 53.456623,
        "gLongitude" : -2.200301,
        "gName" : "Much More"
    },
    {
        "_id" : ObjectId("62980029788524711396aa82"),
        "gAddress" : "133 Portland Street, City Centre, Manchester",
        "gCity" : "Manchester",
        "gId" : "ChIJ1eTlQuqxe0gR3ACdY-5Onhw",
        "gLatitude" : 53.4760791,
        "gLongitude" : -2.2422556,
        "gName" : "Philpotts Ltd"
    },
    {
        "_id" : ObjectId("62980029788524711396aa83"),
        "gAddress" : "58 Whitworth Street West, Manchester",
        "gCity" : "Manchester",
        "gId" : "ChIJ1eyDx-uxe0gROYatEmxYX34",
        "gLatitude" : 53.4740652,
        "gLongitude" : -2.2430725,
        "gName" : "Viva Manchester"
    },
    {
        "_id" : ObjectId("62980029788524711396aa84"),
        "gAddress" : "5 Moorside Road, Stockport",
        "gCity" : "Stockport",
        "gId" : "ChIJ1wJhHKeze0gR6L8gKbNKyVI",
        "gLatitude" : 53.4167036,
        "gLongitude" : -2.1895639,
        "gName" : "Soleil Tanning and Beauty"
    },
    {
        "_id" : ObjectId("62980029788524711396aa85"),
        "gAddress" : "Bridgewater House, 58/60 Whitworth Street, Manchester",
        "gCity" : "Manchester",
        "gId" : "ChIJ1wS14-qxe0gRJXYAx98tydc",
        "gLatitude" : 53.475184,
        "gLongitude" : -2.240149,
        "gName" : "INTO Manchester"
    },
    {
        "_id" : ObjectId("62980029788524711396aa86"),
        "gAddress" : "30 Wilmslow Road, Manchester",
        "gCity" : "Manchester",
        "gId" : "ChIJ1xWPjyeye0gRUvD8zpQm2zA",
        "gLatitude" : 53.455851,
        "gLongitude" : -2.2255783,
        "gName" : "Mughli Charcoal Pit"
    },
    {
        "_id" : ObjectId("62980029788524711396aa87"),
        "gAddress" : "50-52 Wilmslow Road, Manchester",
        "gCity" : "Manchester",
        "gId" : "ChIJ1xWPjyeye0gRaQqnkR0sOt8",
        "gLatitude" : 53.4552311,
        "gLongitude" : -2.2254894,
        "gName" : "Krunchy Fried Chicken"
    },
    {
        "_id" : ObjectId("62980029788524711396aa88"),
        "gAddress" : "34-36 Wilmslow Road, Manchester",
        "gCity" : "Manchester",
        "gId" : "ChIJ1xWPjyeye0gRcLdSDWqVYBQ",
        "gLatitude" : 53.455715,
        "gLongitude" : -2.225513,
        "gName" : "Beirut Restaurant"
    },
    {
        "_id" : ObjectId("62980029788524711396aa89"),
        "gAddress" : "50-52 Wilmslow Road, Manchester",
        "gCity" : "Manchester",
        "gId" : "ChIJ1xWPjyeye0gRsG_5c7AtMgU",
        "gLatitude" : 53.4552751,
        "gLongitude" : -2.2252622,
        "gName" : "The Shere Khan"
    },
    {
        "_id" : ObjectId("62980029788524711396aa8a"),
        "gAddress" : "Mount Road, Gorton, Manchester",
        "gCity" : "Manchester",
        "gId" : "ChIJ1xf4vF-xe0gRTaR7suBE5no",
        "gLatitude" : 53.4587191,
        "gLongitude" : -2.1818903,
        "gName" : "Annie Lees Park"
    },
    {
        "_id" : ObjectId("62980029788524711396aa8b"),
        "gAddress" : "13 Jack Rosenthal Street, Manchester",
        "gCity" : "Manchester",
        "gId" : "ChIJ1y0HT-mxe0gRqz5xACLTKUc",
        "gLatitude" : 53.4726948,
        "gLongitude" : -2.2456904,
        "gName" : "The Laundrette"
    },
    {
        "_id" : ObjectId("62980029788524711396aa8c"),
        "gAddress" : "Bridge House, 26 Ducie Street, Manchester",
        "gCity" : "Manchester",
        "gId" : "ChIJ1y1TuL2xe0gRMx4DLjC-zeI",
        "gLatitude" : 53.4798014,
        "gLongitude" : -2.2300227,
        "gName" : "The Green"
    },
    {
        "_id" : ObjectId("62980029788524711396aa8d"),
        "gAddress" : "239 Talbot Road, Stretford, Manchester",
        "gCity" : "Manchester",
        "gId" : "ChIJ1yYfWt-te0gRJEmkmUulW0U",
        "gLatitude" : 53.4546441,
        "gLongitude" : -2.2943895,
        "gName" : "Cookhouse"
    },
    {
        "_id" : ObjectId("62980029788524711396aa8e"),
        "gAddress" : "Chorlton-cum-Hardy",
        "gCity" : "Manchester",
        "gId" : "ChIJ1ywTkOSte0gR8F_0guEU-NA",
        "gLatitude" : 53.4487909,
        "gLongitude" : -2.2774701,
        "gName" : "Scott Avenue Allotments"
    },
    {
        "_id" : ObjectId("62980029788524711396aa8f"),
        "gAddress" : "353 Wilmslow Road, Manchester",
        "gCity" : "Manchester",
        "gId" : "ChIJ1z4GKjGye0gRof-E6tZEWnI",
        "gLatitude" : 53.4404701,
        "gLongitude" : -2.2191107,
        "gName" : "Friendship Inn"
    },
    {
        "_id" : ObjectId("62980029788524711396aa90"),
        "gAddress" : "Dakota Avenue, Salford",
        "gCity" : "Salford",
        "gId" : "ChIJ1z5IeGque0gRr1OSEAaHj6o",
        "gLatitude" : 53.477513,
        "gLongitude" : -2.295108,
        "gName" : "FutureSkills at MediaCityUK"
    },
    {
        "_id" : ObjectId("62980029788524711396aa91"),
        "gAddress" : "I M A House, 69 Downing Street, Manchester",
        "gCity" : "Manchester",
        "gId" : "ChIJ1zLKKpexe0gRtNPfGe4iI0I",
        "gLatitude" : 53.4725518,
        "gLongitude" : -2.2278025,
        "gName" : "Prime Hair & Beauty"
    },
    {
        "_id" : ObjectId("62980029788524711396aa92"),
        "gAddress" : "543 Wilbraham Road, Manchester",
        "gCity" : "Manchester",
        "gId" : "ChIJ1zTO_u-te0gR8xiAbQmLjHQ",
        "gLatitude" : 53.4444821,
        "gLongitude" : -2.2753166,
        "gName" : "North West Chinese KickBoxing"
    },
    {
        "_id" : ObjectId("62980029788524711396aa93"),
        "gAddress" : "385 Hollinwood Avenue, Manchester",
        "gCity" : "Manchester",
        "gId" : "ChIJ1zksqbewe0gRX2-8pwp0KNk",
        "gLatitude" : 53.5245378,
        "gLongitude" : -2.1735739,
        "gName" : "Dilshad Tandoori"
    },
    {
        "_id" : ObjectId("62980029788524711396aa94"),
        "gAddress" : "23 Alford Avenue, Manchester",
        "gCity" : "Manchester",
        "gId" : "ChIJ2-drOhSye0gRkybLYwItkDo",
        "gLatitude" : 53.4389902,
        "gLongitude" : -2.2392202,
        "gName" : "AL Fatimah Travels"
    },
    {
        "_id" : ObjectId("62980029788524711396aa95"),
        "gAddress" : "38 Shudehill, Manchester",
        "gCity" : "Manchester",
        "gId" : "ChIJ2-pm0bmxe0gRok3RHIcRZJI",
        "gLatitude" : 53.484915,
        "gLongitude" : -2.2382845,
        "gName" : "Dixy Chicken"
    },
    {
        "_id" : ObjectId("62980029788524711396aa96"),
        "gAddress" : "Hulme High Street, Manchester",
        "gCity" : "Manchester",
        "gId" : "ChIJ2-x_Svexe0gRx9edF-K7Kps",
        "gLatitude" : 53.4614312,
        "gLongitude" : -2.2479951,
        "gName" : "Inaaya hair & beauty"
    },
    {
        "_id" : ObjectId("62980029788524711396aa97"),
        "gAddress" : "39 Broadstone Road, Stockport",
        "gCity" : "Stockport",
        "gId" : "ChIJ20JWVYuze0gRh7TrWJMyq28",
        "gLatitude" : 53.4358605,
        "gLongitude" : -2.1626667,
        "gName" : "Mint Kitchen Indian & Bengali Restaurant & Takeway"
    },
    {
        "_id" : ObjectId("62980029788524711396aa98"),
        "gAddress" : "mauriziotoccu",
        "gCity" : "Sale",
        "gId" : "ChIJ20RL0bite0gRQqyA5RE8SHM",
        "gLatitude" : 53.4300926,
        "gLongitude" : -2.2925298,
        "gName" : "Sale Ees"
    },
    {
        "_id" : ObjectId("62980029788524711396aa99"),
        "gAddress" : "Liverpool Road, Manchester",
        "gCity" : "Manchester",
        "gId" : "ChIJ20Rcgeexe0gR9j7ZK6QycUE",
        "gLatitude" : 53.4773135,
        "gLongitude" : -2.2549624,
        "gName" : "Museum of Science and Industry"
    },
    {
        "_id" : ObjectId("62980029788524711396aa9a"),
        "gAddress" : "5 Blackfriars Road, Salford",
        "gCity" : "Salford",
        "gId" : "ChIJ21212MSxe0gRVNXCVJadgQg",
        "gLatitude" : 53.4854931,
        "gLongitude" : -2.2507991,
        "gName" : "Butty Box"
    },
    {
        "_id" : ObjectId("62980029788524711396aa9b"),
        "gAddress" : "310 Wilmslow Road, Manchester",
        "gCity" : "Manchester",
        "gId" : "ChIJ21mjzzCye0gR35olXTD32HE",
        "gLatitude" : 53.4408179,
        "gLongitude" : -2.2197571,
        "gName" : "CUBO Fallowfield"
    },
    {
        "_id" : ObjectId("62980029788524711396aa9c"),
        "gAddress" : "22 Stretford Road, Manchester",
        "gCity" : "Manchester",
        "gId" : "ChIJ21tj3-2xe0gRJlHuDUwJax0",
        "gLatitude" : 53.468667,
        "gLongitude" : -2.2428786,
        "gName" : "Birley Fields Eaterie Ltd"
    },
    {
        "_id" : ObjectId("62980029788524711396aa9d"),
        "gAddress" : "4 Lapwing Lane, Manchester",
        "gCity" : "Manchester",
        "gId" : "ChIJ21yoNWmye0gRExVbjYNt9Gw",
        "gLatitude" : 53.4275688,
        "gLongitude" : -2.2404391,
        "gName" : "Lavoro Sara"
    },
    {
        "_id" : ObjectId("62980029788524711396aa9e"),
        "gAddress" : "41 Ayres Road, Manchester",
        "gCity" : "Manchester",
        "gId" : "ChIJ2272xAGue0gRJq2T83FrF8w",
        "gLatitude" : 53.457986,
        "gLongitude" : -2.270993,
        "gName" : "Butterfly Hair and Beauty Studio"
    },
    {
        "_id" : ObjectId("62980029788524711396aa9f"),
        "gAddress" : "94A Withington Road, Manchester",
        "gCity" : "Manchester",
        "gId" : "ChIJ22GBCgGye0gR1MbijvFNaRc",
        "gLatitude" : 53.4535408,
        "gLongitude" : -2.2577558,
        "gName" : "Subway"
    },
    {
        "_id" : ObjectId("62980029788524711396aaa0"),
        "gAddress" : "3 Hardman Street, Manchester",
        "gCity" : "Manchester",
        "gId" : "ChIJ22HSIN2xe0gRkc50RA-6yTM",
        "gLatitude" : 53.4799953,
        "gLongitude" : -2.2512597,
        "gName" : "bureau gallery"
    },
    {
        "_id" : ObjectId("62980029788524711396aaa1"),
        "gAddress" : "127 Great Bridgewater Street, Manchester",
        "gCity" : "Manchester",
        "gId" : "ChIJ22KIf-mxe0gRVvsZej2-zmE",
        "gLatitude" : 53.4749347,
        "gLongitude" : -2.2446475,
        "gName" : "Peveril Of The Peak"
    },
    {
        "_id" : ObjectId("62980029788524711396aaa2"),
        "gAddress" : "95 Mauldeth Rd, Manchester",
        "gCity" : "Manchester",
        "gId" : "ChIJ22OcdUqye0gRaO6f9c0e188",
        "gLatitude" : 53.4354361,
        "gLongitude" : -2.2136551,
        "gName" : "Sanskruti Restaurant"
    },
    {
        "_id" : ObjectId("62980029788524711396aaa3"),
        "gAddress" : "1A Hulme High Street, Manchester",
        "gCity" : "Manchester",
        "gId" : "ChIJ23-awfCxe0gRwkQ0KgNfiAI",
        "gLatitude" : 53.4625653,
        "gLongitude" : -2.2480963,
        "gName" : "Eat & Treat"
    },
    {
        "_id" : ObjectId("62980029788524711396aaa4"),
        "gAddress" : "68 Old Church Street, Manchester",
        "gCity" : "Manchester",
        "gId" : "ChIJ231Crdiwe0gRD6sPaEWmT7Y",
        "gLatitude" : 53.5010618,
        "gLongitude" : -2.1808617,
        "gName" : "Buddha Beach"
    },
    {
        "_id" : ObjectId("62980029788524711396aaa5"),
        "gAddress" : "Sew In, 175 Princess Road, Manchester",
        "gCity" : "Manchester",
        "gId" : "ChIJ23Aatx2ye0gRWEuAZRu6YYk",
        "gLatitude" : 53.4538439,
        "gLongitude" : -2.2448178,
        "gName" : "Muneeta Beauty Shop"
    },
    {
        "_id" : ObjectId("62980029788524711396aaa6"),
        "gAddress" : "32 Market Street, Manchester",
        "gCity" : "Manchester",
        "gId" : "ChIJ23WOMsGxe0gR3OR0HjbhhJw",
        "gLatitude" : 53.4826291,
        "gLongitude" : -2.2430724,
        "gName" : "Origins"
    },
    {
        "_id" : ObjectId("62980029788524711396aaa7"),
        "gAddress" : "Arndale Centre, R31, Marsden Street, Manchester",
        "gCity" : "Manchester",
        "gId" : "ChIJ23WOMsGxe0gRYiShZZKdA4w",
        "gLatitude" : 53.4824413,
        "gLongitude" : -2.2430547,
        "gName" : "Fantastic Nails and Beauty"
    },
    {
        "_id" : ObjectId("62980029788524711396aaa8"),
        "gAddress" : "Deansgate, Manchester",
        "gCity" : "Manchester",
        "gId" : "ChIJ23WOMsGxe0gRjr0S-pOzRO0",
        "gLatitude" : 53.480064,
        "gLongitude" : -2.248505,
        "gName" : "Origins"
    },
    {
        "_id" : ObjectId("62980029788524711396aaa9"),
        "gAddress" : "85 Delaunays Road, Manchester",
        "gCity" : "Manchester",
        "gId" : "ChIJ23XX6kKwe0gRubk7aplka0g",
        "gLatitude" : 53.5190723,
        "gLongitude" : -2.2316437,
        "gName" : "Delaunays Chippy"
    },
    {
        "_id" : ObjectId("62980029788524711396aaaa"),
        "gAddress" : "106a Mauldeth Road, Manchester",
        "gCity" : "Manchester",
        "gId" : "ChIJ24OwdUqye0gR6hcse8WB4tA",
        "gLatitude" : 53.4352144,
        "gLongitude" : -2.2137013,
        "gName" : "Hot Chicx Takeaway"
    },
    {
        "_id" : ObjectId("62980029788524711396aaab"),
        "gAddress" : "128 Littleton Road, Salford",
        "gCity" : "Salford",
        "gId" : "ChIJ251FAdKve0gRfXZ2IrC1BcA",
        "gLatitude" : 53.5037209,
        "gLongitude" : -2.2794341,
        "gName" : "HASTY TASTY TAKEAWAY"
    },
    {
        "_id" : ObjectId("62980029788524711396aaac"),
        "gAddress" : "820 Stockport Road, Manchester",
        "gCity" : "Manchester",
        "gId" : "ChIJ2520Dtuze0gRxnoo_15F6kE",
        "gLatitude" : 53.448475,
        "gLongitude" : -2.1921355,
        "gName" : "Alborz (Persian Cuisine)"
    },
    {
        "_id" : ObjectId("62980029788524711396aaad"),
        "gAddress" : "312 Slade Lane, Manchester",
        "gCity" : "Manchester",
        "gId" : "ChIJ25K1TM6ze0gRLKa4aXpOeh4",
        "gLatitude" : 53.4439158,
        "gLongitude" : -2.1994508,
        "gName" : "Encore Room"
    },
    {
        "_id" : ObjectId("62980029788524711396aaae"),
        "gAddress" : "2 Fairclough Street, Manchester",
        "gCity" : "Manchester",
        "gId" : "ChIJ26KtFxexe0gR9lgDL2j0_fI",
        "gLatitude" : 53.4875604,
        "gLongitude" : -2.1912146,
        "gName" : "Philip's Park Pump Track and Mountain Bike Skills Area"
    },
    {
        "_id" : ObjectId("62980029788524711396aaaf"),
        "gAddress" : "20 Lee Road, Manchester",
        "gCity" : "Manchester",
        "gId" : "ChIJ27Nhnfewe0gRSIIWL1e5cjY",
        "gLatitude" : 53.5125298,
        "gLongitude" : -2.212493,
        "gName" : "M T Nails"
    },
    {
        "_id" : ObjectId("62980029788524711396aab0"),
        "gAddress" : "6 Harpurhey District Cent, Manchester",
        "gCity" : "Manchester",
        "gId" : "ChIJ27Nhnfewe0gRzcxX54KAByc",
        "gLatitude" : 53.512576,
        "gLongitude" : -2.2119557,
        "gName" : "Greggs Harpurhey"
    },
    {
        "_id" : ObjectId("62980029788524711396aab1"),
        "gAddress" : "The Thistle, 3-5 Portland Street, Manchester",
        "gCity" : "Manchester",
        "gId" : "ChIJ27UOqr-xe0gRGTXPZig2wuk",
        "gLatitude" : 53.4802097,
        "gLongitude" : -2.2351918,
        "gName" : "Just Gym"
    },
    {
        "_id" : ObjectId("62980029788524711396aab2"),
        "gAddress" : "98-116 Deansgate, Manchester",
        "gCity" : "Manchester",
        "gId" : "ChIJ287tmMOxe0gR3-zUpiEY22g",
        "gLatitude" : 53.481806,
        "gLongitude" : -2.248011,
        "gName" : "DestinationSkin Manchester"
    },
    {
        "_id" : ObjectId("62980029788524711396aab3"),
        "gAddress" : "24A Burton Road, Manchester",
        "gCity" : "Manchester",
        "gId" : "ChIJ28PIKECye0gRuXZ-XUF9-2g",
        "gLatitude" : 53.4331484,
        "gLongitude" : -2.2322969,
        "gName" : "Withington Adult Learning Centre"
    },
    {
        "_id" : ObjectId("62980029788524711396aab4"),
        "gAddress" : "14 Ashton Hill Lane, Manchester",
        "gCity" : "Manchester",
        "gId" : "ChIJ29FVPLi2e0gRBY1jB9s9x-U",
        "gLatitude" : 53.4779137,
        "gLongitude" : -2.1452414,
        "gName" : "Lazy Toad"
    },
    {
        "_id" : ObjectId("62980029788524711396aab5"),
        "gAddress" : "Alton Works, Unit 3, Harwood Road, Stockport",
        "gCity" : "Stockport",
        "gId" : "ChIJ29gtQveye0gRMxz9m4GBVlo",
        "gLatitude" : 53.412632,
        "gLongitude" : -2.209933,
        "gName" : "The Heatons Personal Training Company"
    },
    {
        "_id" : ObjectId("62980029788524711396aab6"),
        "gAddress" : "194-196 Burton Road, Manchester",
        "gCity" : "Manchester",
        "gId" : "ChIJ2Q095m6ye0gRuIZEqXpVxEw",
        "gLatitude" : 53.427028,
        "gLongitude" : -2.2424922,
        "gName" : "Gurkha Grill"
    },
    {
        "_id" : ObjectId("62980029788524711396aab7"),
        "gAddress" : "Greenside Trading Centre, Greenside Lane, Droylsden, Manchester",
        "gCity" : "Manchester",
        "gId" : "ChIJ2Q52J8a2e0gRJ7bUqhjZ4ks",
        "gLatitude" : 53.4829761,
        "gLongitude" : -2.1466438,
        "gName" : "Muscle & Fitness"
    },
    {
        "_id" : ObjectId("62980029788524711396aab8"),
        "gAddress" : "Greenside Trading Centre, Greenside Lane, Droylsden, Manchester",
        "gCity" : "Manchester",
        "gId" : "ChIJ2Q52J8a2e0gReF-EDwWDKwQ",
        "gLatitude" : 53.482454,
        "gLongitude" : -2.1468874,
        "gName" : "Busy Bodz Gymnastics"
    },
    {
        "_id" : ObjectId("62980029788524711396aab9"),
        "gAddress" : "Heaton Lane, Stockport",
        "gCity" : "Stockport",
        "gId" : "ChIJ2R_wknmze0gRsSeLQi21gQk",
        "gLatitude" : 53.4096184,
        "gLongitude" : -2.1653607,
        "gName" : "Hektix Hair & Beauty"
    },
    {
        "_id" : ObjectId("62980029788524711396aaba"),
        "gAddress" : "43 Barlow Moor Road, Manchester",
        "gCity" : "Manchester",
        "gId" : "ChIJ2RklMWeye0gRHI53LT6A8hY",
        "gLatitude" : 53.418129,
        "gLongitude" : -2.233673,
        "gName" : "OKitchen Bar and Restaurant"
    },
    {
        "_id" : ObjectId("62980029788524711396aabb"),
        "gAddress" : "60 Charles Street, Manchester",
        "gCity" : "Manchester",
        "gId" : "ChIJ2Ro_P-uxe0gRVWKTpDewPzY",
        "gLatitude" : 53.4737544,
        "gLongitude" : -2.239253,
        "gName" : "Your Personal Gym Limited"
    },
    {
        "_id" : ObjectId("62980029788524711396aabc"),
        "gAddress" : "72 Gartside Street, Manchester",
        "gCity" : "Manchester",
        "gId" : "ChIJ2TDvIN2xe0gRr3MSmV9hqjU",
        "gLatitude" : 53.480056,
        "gLongitude" : -2.2528842,
        "gName" : "Benugo"
    },
    {
        "_id" : ObjectId("62980029788524711396aabd"),
        "gAddress" : "286 Didsbury Road, Stockport",
        "gCity" : "Stockport",
        "gId" : "ChIJ2TfO9geze0gR7LJIJeO9Qd0",
        "gLatitude" : 53.413381,
        "gLongitude" : -2.194716,
        "gName" : "Basia Marie Beauty Salon"
    },
    {
        "_id" : ObjectId("62980029788524711396aabe"),
        "gAddress" : "17 Moss Lane West, Old, Manchester",
        "gCity" : "Manchester",
        "gId" : "ChIJ2UofHNyxe0gRkKvv6UWgFmI",
        "gLatitude" : 53.4592431,
        "gLongitude" : -2.2571595,
        "gName" : "Tick Tock Shakes"
    },
    {
        "_id" : ObjectId("62980029788524711396aabf"),
        "gAddress" : "486 Cheetham Hill Road, Manchester",
        "gCity" : "Manchester",
        "gId" : "ChIJ2UtBLTiwe0gRpQUYu3tUZss",
        "gLatitude" : 53.5108304,
        "gLongitude" : -2.2440582,
        "gName" : "Manchester Training College UK"
    },
    {
        "_id" : ObjectId("62980029788524711396aac0"),
        "gAddress" : "12 Lundy Avenue, Manchester",
        "gCity" : "Manchester",
        "gId" : "ChIJ2V3gTomte0gRXR_OYn9kKtM",
        "gLatitude" : 53.4276426,
        "gLongitude" : -2.2662924,
        "gName" : "Fly Express"
    },
    {
        "_id" : ObjectId("62980029788524711396aac1"),
        "gAddress" : "584 Broadway, Chadderton, Oldham",
        "gCity" : "Oldham",
        "gId" : "ChIJ2V95iMqwe0gR00BpnImNQlo",
        "gLatitude" : 53.5216851,
        "gLongitude" : -2.1660643,
        "gName" : "C'est La Vie Hair & Beauty"
    },
    {
        "_id" : ObjectId("62980029788524711396aac2"),
        "gAddress" : "Milton Hall, 244 Deansgate, Manchester",
        "gCity" : "Manchester",
        "gId" : "ChIJ2Vkuo8Kxe0gRwjlURPxZOb8",
        "gLatitude" : 53.477987,
        "gLongitude" : -2.249926,
        "gName" : "Health 2 Ltd"
    },
    {
        "_id" : ObjectId("62980029788524711396aac3"),
        "gAddress" : "30 Manchester Road, Chorlton, Manchester",
        "gCity" : "Manchester",
        "gId" : "ChIJ2W_wge-te0gRpPdEqP3hC5g",
        "gLatitude" : 53.4439961,
        "gLongitude" : -2.2780155,
        "gName" : "Proof"
    },
    {
        "_id" : ObjectId("62980029788524711396aac4"),
        "gAddress" : "Stopford Building, Oxford Road, Manchester",
        "gCity" : "Manchester",
        "gId" : "ChIJ2Wg_KYyxe0gRbcHMSe46jnc",
        "gLatitude" : 53.4639416,
        "gLongitude" : -2.2308254,
        "gName" : "Stopford Building"
    },
    {
        "_id" : ObjectId("62980029788524711396aac5"),
        "gAddress" : "19 Jackson's Row, Manchester",
        "gCity" : "Manchester",
        "gId" : "ChIJ2XI7X8Kxe0gRRNPbH0gsSZY",
        "gLatitude" : 53.4790699,
        "gLongitude" : -2.2480486,
        "gName" : "The Old Nags Head"
    },
    {
        "_id" : ObjectId("62980029788524711396aac6"),
        "gAddress" : "Lloyds House, 5 Jackson's Row, Manchester",
        "gCity" : "Manchester",
        "gId" : "ChIJ2XI7X8Kxe0gRYcsLaSUl6EM",
        "gLatitude" : 53.4791779,
        "gLongitude" : -2.2485996,
        "gName" : "Pro-Balance Personal training and Sports Therapy"
    },
    {
        "_id" : ObjectId("62980029788524711396aac7"),
        "gAddress" : "29 Jackson's Row, Manchester",
        "gCity" : "Manchester",
        "gId" : "ChIJ2XI7X8Kxe0gRlgHW9GIR78Q",
        "gLatitude" : 53.479015,
        "gLongitude" : -2.248071,
        "gName" : "The Venue Nightclub"
    },
    {
        "_id" : ObjectId("62980029788524711396aac8"),
        "gAddress" : "40 Blossom Street, Manchester",
        "gCity" : "Manchester",
        "gId" : "ChIJ2Xa8776xe0gRpv4viL65JIM",
        "gLatitude" : 53.4846153,
        "gLongitude" : -2.2284658,
        "gName" : "Halle st peter's"
    },
    {
        "_id" : ObjectId("62980029788524711396aac9"),
        "gAddress" : "77 Piccadilly, Manchester",
        "gCity" : "Manchester",
        "gId" : "ChIJ2Xr89b6xe0gRnGyHOIUY0pA",
        "gLatitude" : 53.4805616,
        "gLongitude" : -2.2338837,
        "gName" : "RZKFIT Personal Training"
    },
    {
        "_id" : ObjectId("62980029788524711396aaca"),
        "gAddress" : "27 Blossom Street, Manchester",
        "gCity" : "Manchester",
        "gId" : "ChIJ2YHSlLuxe0gRqxKvVe7tAi8",
        "gLatitude" : 53.4844395,
        "gLongitude" : -2.2305156,
        "gName" : "TG Worldwide Sales & Promotions (Manchester)"
    },
    {
        "_id" : ObjectId("62980029788524711396aacb"),
        "gAddress" : "195 Broadway, Chadderton, Oldham",
        "gCity" : "Oldham",
        "gId" : "ChIJ2Z-dD1q3e0gRhzGukxmZA0Q",
        "gLatitude" : 53.5403994,
        "gLongitude" : -2.1492987,
        "gName" : "Ancora"
    },
    {
        "_id" : ObjectId("62980029788524711396aacc"),
        "gAddress" : "Unit 1, Key 103 Building, Castle St, Manchester",
        "gCity" : "Manchester",
        "gId" : "ChIJ2ZM7k8Oxe0gRYcDGo9dlF6Y",
        "gLatitude" : 53.4730313,
        "gLongitude" : -2.2559525,
        "gName" : "Harrison Cleaning Specialists Ltd"
    },
    {
        "_id" : ObjectId("62980029788524711396aacd"),
        "gAddress" : "195-197 Wilmslow Road, Manchester",
        "gCity" : "Manchester",
        "gId" : "ChIJ2_HbKSaye0gRtHuCrEjmiTM",
        "gLatitude" : 53.4532628,
        "gLongitude" : -2.223072,
        "gName" : "Ajzerah"
    },